~VERSION INFORMATION
 VERS.                 2.0:   CWLS Log Ascii Standard    
 WRAP.                 YES:   Multiple Lines per Depth   
~WELL INFORMATION
#MNEM.UNIT              DATA                DESCRIPTION OF MNEMONIC  
#---------              ----                -----------------------
 CTRY  .  USA                               :Country
 CNTY  .                                    :County
 API   .                                    :API Reference Number
 DATE  .                                    :Log Date
 LOC   .                                    :Location
 STRT  .FT         4594.0000                :Top Depth  
 STOP  .FT         5863.0000                :Bottom Depth  
 STEP  .FT             .5000                :Increment  
 NULL  .          -99999.000                :Null Value  
 COMP  .                                    :Company   
 FLD   .                                    :Field  
 STAT  .   TEXAS                            :State  
 SRVC  .   SCHLUMBERGER                     :Service Company  
 WELL  .   B YATES 15                       :Well  
 UWI   .   422373671100                     :Unique Well ID  
~PARAMETER INFORMATION
#MNEM.UNIT        Value       Description                
#---------    -------------   -------------------------- 
 RUN   .                 1:   Run Number                 
 DATUM .FT       1072.0000:   Datum                      
 AMST  .DEG.F      80.0000:   Annual Mean Surface Temp.  
 BHT   .DEG.F     138.0000:   Bottom Hole Temperature    
 TD    .FT       5865.0000:   Loggers Total Depth        
 BITSIZ.IN          7.8750:   Bit Size                   
 MW    .LB/USGAL    9.3000:   Mud Weight                 
 RM    .OHM-M       4.3000:   Mud Resistivity            
 RMMT  .DEG.F      75.0000:   Mud Resistivity Meas. Temp.
 RMF   .OHM-M       3.6000:   Mud Filtrate Resistivity   
 RMFMT .DEG.F      75.0000:   Mud Filtrate Res.Meas.Temp.
 RMC   .OHM-M       4.8000:   Mud Cake Resistivity       
 RMCMT .DEG.F      75.0000:   Mud Cake Res. Meas. Temp.  
 RW    .OHM-M        .0539:   Formation Water Resistivity
 RWMT  .DEG.F      75.0000:   Formation Water Res.M.Temp.
 SALFM .PPM      150000.00:   Formation Water Salinity   
~CURVE INFORMATION
#MNEM.UNIT       API Code     Curve Description          
#---------    -------------   -------------------------- 
 DEPTH .FT                    : Depth                                   
 CALI  .INS                   : Caliper                                 
 GR    .API                   : Gamma Ray                               
 NPHI  .PU                    : Compensated Neutron (Limestone)         
 PEF   .B/E                   : Photoelectric Effect                    
 RILD  .OHMM                  : Deep Induction Resistivity              
 RHOB  .G/CC                  : Formation Density Compensated           
 RILM  .OHMM                  : Medium Induction Resistivity            
 RSFL  .OHMM                  : Spherically Focused Resistivity         
 SP    .MV                    : Spontaneous Potential                   
~A Log Data Section - Number of Curves =    10
# ...
 4997.0000
    11.122000   110.899002    23.200001     2.575000     5.431000     2.511000
     5.431000     5.994000   -20.365820
 4997.5000
    10.937000   106.442001    23.200001     2.575000     5.431000     2.552000
     5.497000     6.134000   -20.023746
 4998.0000
    10.800000   107.286003    23.200001     2.575000     5.431000     2.565000
     5.497000     6.134000   -20.035038
 4998.5000
    10.683000   111.414001    23.200001     2.576000     5.427000     2.572000
     5.501000     6.134000   -20.045666
 4999.0000
    10.626000   115.874001    23.200001     2.576000     5.365000     2.574000
     5.681000     6.316000   -19.702929
 4999.5000
    10.555000   117.825996    23.200001     2.576000     5.365000     2.576000
     5.497000     6.548000   -19.714218
 5000.0000
    10.454000   119.186996    23.200001     2.576000     5.368000     2.579000
     5.499000     6.602000   -19.724846
 5000.5000
    10.397000   120.244003    23.200001     2.577000     5.372000     2.584000
     5.505000     6.609000   -19.382774
 5001.0000
    10.442000   121.400002    23.200001     2.577000     5.377000     2.592000
     5.443000     6.424000   -19.371483
 5001.5000
    10.560000   122.892998    23.200001     2.577000     5.381000     2.597000
     5.514000     6.229000   -19.060627
 5002.0000
    10.622000   123.558998    23.200001     2.577000     5.386000     2.592000
     5.586000     6.235000   -19.063284
 5002.5000
    10.688000   122.054001    23.200001     2.578000     5.390000     2.588000
     5.423000     6.394000   -19.073912
 5003.0000
    10.688000   118.490997    23.200001     2.578000     5.395000     2.587000
     5.461000     6.415000   -19.084538
 5003.5000
    10.676000   115.000000    23.200001     2.578000     5.399000     2.583000
     5.406000     6.484000   -19.446539
 5004.0000
    10.615000   114.893997    23.200001     2.579000     5.404000     2.570000
     5.404000     6.443000   -19.457830
 5004.5000
    10.547000   115.612999    23.200001     2.579000     5.408000     2.550000
     5.495000     6.440000   -19.468458
 5005.0000
    10.523000   114.973000    23.200001     2.579000     5.412000     2.538000
     5.510000     6.501000   -19.479750
 5005.5000
    10.524000   113.994003    23.200001     2.579000     5.412000     2.540000
     5.449000     6.500000   -19.489714
 5006.0000
    10.555000   113.452003    23.200001     2.580000     5.412000     2.557000
     5.388000     6.421000   -19.501005
 5006.5000
    10.679000   113.007004    23.200001     2.580000     5.346000     2.585000
     5.328000     6.266000   -19.490377
 5007.0000
    10.858000   113.001999    23.200001     2.580000     5.346000     2.602000
     5.268000     6.130000   -19.473772
 5007.5000
    11.019000   113.195999    23.200001     2.581000     5.281000     2.589000
     5.209000     6.004000   -19.461815
 5008.0000
    11.061000   114.197998    23.200001     2.581000     5.217000     2.559000
     5.154000     5.968000   -19.449860
 5008.5000
    11.061000   115.045998    23.200001     2.581000     5.217000     2.532000
     5.217000     6.115000   -19.437239
 5009.0000
    11.060000   114.299004    23.200001     2.581000     5.154000     2.520000
     5.091000     6.190000   -19.425947
 5009.5000
    11.055000   111.896004    23.200001     2.582000     5.091000     2.519000
     5.073000     6.190000   -19.414658
 5010.0000
    11.048000   110.477997    23.200001     2.582000     5.091000     2.528000
     5.006000     5.970000   -19.402700
 5010.5000
    11.143000   109.628998    23.200001     2.582000     5.055000     2.543000
     4.970000     5.643000   -19.390079
 5011.0000
    11.255000   109.347000    23.200001     2.582000     5.032000     2.542000
     4.971000     5.402000   -19.732153
 5011.5000
    11.298000   110.426003    23.200001     2.583000     5.004000     2.529000
     4.973000     5.404000   -19.720861
 5012.0000
    11.293000   112.278000    23.200001     2.583000     4.946000     2.517000
     4.975000     5.539000   -20.102789
 5012.5000
    11.265000   113.496002    23.200001     2.583000     4.889000     2.507000
     4.977000     5.832000   -20.108101
 5013.0000
    11.238000   113.549004    23.200001     2.584000     4.858000     2.479000
     4.978000     5.905000   -20.113417
 5013.5000
    11.222000   112.279999    23.200001     2.584000     4.920000     2.419000
     4.992000     5.765000   -20.471430
 5014.0000
    11.336000   110.727997    23.200001     2.584000     5.155000     2.379000
     5.218000     5.641000   -20.477407
 5014.5000
    11.770000   108.017998    23.200001     2.584000     5.427000     2.382000
     5.323000     5.521000   -20.129356
 5015.0000
    11.895000   106.550003    23.200001     2.585000     5.563000     2.419000
     5.496000     5.913000   -19.781305
 5015.5000
    11.665000   107.888000    23.200001     2.585000     5.633000     2.482000
     5.702000     6.488000   -19.432590
 5016.0000
    11.394000   112.196999    23.200001     2.585000     5.702000     2.529000
     5.857000     6.812000   -19.085203
 5016.5000
    11.136000   115.180000    23.200001     2.586000     5.702000     2.554000
     6.060000     7.170000   -19.090517
 5017.0000
    10.950000   116.501999    23.200001     2.586000     5.772000     2.562000
     6.134000     7.311000   -19.095167
 5017.5000
    10.844000   115.552002    23.200001     2.586000     5.772000     2.560000
     6.134000     7.455000   -19.100479
 5018.0000
    10.820000   114.463997    23.200001     2.586000     5.772000     2.556000
     6.060000     7.491000   -19.458496
 5018.5000
    10.827000   114.956001    23.200001     2.587000     5.758000     2.542000
     5.972000     7.152000   -19.463808
 5019.0000
    10.861000   116.695999    23.200001     2.587000     5.702000     2.497000
     5.716000     6.648000   -19.469122
 5019.5000
    10.936000   117.986000    23.200001     2.587000     5.674000     2.418000
     5.674000     5.885000   -20.181166
 5020.0000
    11.020000   114.846001    23.200001     2.587000     5.633000     2.358000
     5.633000     5.843000   -20.185816
 5020.5000
    11.145000   109.766998    23.163000     2.588000     5.517000     2.354000
     5.702000     5.843000   -20.544495
 5021.0000
    11.248000   106.800003    23.018000     2.597000     5.417000     2.406000
     5.772000     6.195000   -20.903173
 5021.5000
    11.297000   107.931000    23.118000     2.638000     5.365000     2.483000
     5.914000     6.355000   -21.261852
 5022.0000
    11.329000   110.555000    23.237000     2.632000     5.365000     2.534000
     5.987000     6.225000   -21.522892
 5022.5000
    11.377000   112.747002    23.417999     2.627000     5.365000     2.543000
     5.987000     6.210000   -21.625181
 5023.0000
    11.397000   113.519997    23.518000     2.621000     5.404000     2.531000
     5.972000     6.301000   -21.631159
 5023.5000
    11.376000   114.776001    23.636999     2.615000     5.497000     2.494000
     5.850000     6.433000   -21.781273
 5024.0000
    11.307000   116.152000    23.818001     2.609000     5.497000     2.459000
     5.772000     6.441000   -22.347851
 5024.5000
    11.255000   116.960999    23.937000     2.603000     5.497000     2.448000
     5.681000     6.520000   -22.428888
 5025.0000
    11.214000   116.031998    24.118000     2.597000     5.497000     2.464000
     5.633000     6.600000   -22.711180
 5025.5000
    11.241000   112.415001    24.218000     2.592000     5.497000     2.499000
     5.565000     6.600000   -22.716494
 5026.0000
    11.361000   109.773003    24.337000     2.586000     5.497000     2.516000
     5.565000     6.520000   -22.721809
 5026.5000
    11.600000   111.499001    24.518000     2.580000     5.565000     2.525000
     5.497000     6.355000   -22.723137
 5027.0000
    11.859000   113.513000    24.636999     2.574000     5.565000     2.534000
     5.497000     6.134000   -22.378407
 5027.5000
    11.977000   115.829002    24.818001     2.568000     5.565000     2.546000
     5.497000     5.987000   -21.881569
