~VERSION INFORMATION
 VERS.                 2.0:   CWLS Log Ascii Standard    
 WRAP.                 YES:   Multiple Lines per Depth   
~WELL INFORMATION
#MNEM.UNIT              DATA                DESCRIPTION OF MNEMONIC  
#---------              ----                -----------------------
 CTRY  .  USA                               :Country
 CNTY  .                                    :County
 API   .                                    :API Reference Number
 DATE  .                                    :Log Date
 LOC   .                                    :Location
 STRT  .FT         4594.0000                :Top Depth  
 STOP  .FT         5863.0000                :Bottom Depth  
 STEP  .FT             .5000                :Increment  
 NULL  .          -99999.000                :Null Value  
 COMP  .                                    :Company   
 FLD   .                                    :Field  
 STAT  .   TEXAS                            :State  
 SRVC  .   SCHLUMBERGER                     :Service Company  
 WELL  .   B YATES 15                       :Well  
 UWI   .   422373671100                     :Unique Well ID  
~PARAMETER INFORMATION
#MNEM.UNIT        Value       Description                
#---------    -------------   -------------------------- 
 RUN   .                 1:   Run Number                 
 DATUM .FT       1072.0000:   Datum                      
 AMST  .DEG.F      80.0000:   Annual Mean Surface Temp.  
 BHT   .DEG.F     138.0000:   Bottom Hole Temperature    
 TD    .FT       5865.0000:   Loggers Total Depth        
 BITSIZ.IN          7.8750:   Bit Size                   
 MW    .LB/USGAL    9.3000:   Mud Weight                 
 RM    .OHM-M       4.3000:   Mud Resistivity            
 RMMT  .DEG.F      75.0000:   Mud Resistivity Meas. Temp.
 RMF   .OHM-M       3.6000:   Mud Filtrate Resistivity   
 RMFMT .DEG.F      75.0000:   Mud Filtrate Res.Meas.Temp.
 RMC   .OHM-M       4.8000:   Mud Cake Resistivity       
 RMCMT .DEG.F      75.0000:   Mud Cake Res. Meas. Temp.  
 RW    .OHM-M        .0539:   Formation Water Resistivity
 RWMT  .DEG.F      75.0000:   Formation Water Res.M.Temp.
 SALFM .PPM      150000.00:   Formation Water Salinity   
~CURVE INFORMATION
#MNEM.UNIT       API Code     Curve Description          
#---------    -------------   -------------------------- 
 DEPTH .FT                    : Depth                                   
 CALI  .INS                   : Caliper                                 
 GR    .API                   : Gamma Ray                               
 NPHI  .PU                    : Compensated Neutron (Limestone)         
 PEF   .B/E                   : Photoelectric Effect                    
 RILD  .OHMM                  : Deep Induction Resistivity              
 RHOB  .G/CC                  : Formation Density Compensated           
 RILM  .OHMM                  : Medium Induction Resistivity            
 RSFL  .OHMM                  : Spherically Focused Resistivity         
 SP    .MV                    : Spontaneous Potential                   
~A Log Data Section - Number of Curves =    10
# ...
 5431.0000
     8.157000    52.578999     7.456000     4.256000    18.142000     2.657000
    20.599001    34.511002   -20.329950
 5431.5000
     8.157000    46.932999     5.647000     4.686000    18.590000     2.659000
    23.464001    52.339001   -20.317995
 5432.0000
     8.157000    47.772999     5.123000     4.601000    17.650999     2.652000
    23.363001    62.827999   -20.306704
 5432.5000
     8.157000    53.175999     5.869000     4.154000    15.273000     2.635000
    19.900000    59.181999   -19.941383
 5433.0000
     8.157000    60.084999     8.951000     3.639000    13.197000     2.606000
    15.511000    42.973999   -19.930090
 5433.5000
     8.157000    68.468002    12.739000     3.215000    11.403000     2.567000
    12.090000    24.423000   -19.918798
 5434.0000
     8.157000    77.432999    16.546000     2.769000     9.853000     2.528000
     9.424000    13.880000   -19.908836
 5434.5000
     8.157000    85.718002    20.354000     2.574000     8.514000     2.507000
     7.802000     9.927000   -19.897545
 5435.0000
     8.156000    91.870003    21.511999     2.543000     7.356000     2.505000
     7.125000     7.450000   -19.898872
 5435.5000
     8.156000    95.556999    21.287001     2.659000     6.600000     2.507000
     6.715000     7.275000   -19.550821
 5436.0000
     8.156000    96.845001    20.259001     2.789000     6.340000     2.523000
     6.520000     8.016000   -19.556135
 5436.5000
     8.156000    95.112000    18.742001     3.160000     6.286000     2.561000
     6.441000     9.375000   -19.914150
 5437.0000
     8.156000    89.967003    17.139000     3.561000     6.363000     2.590000
     6.520000    10.965000   -20.272829
 5437.5000
     8.156000    83.755997    15.534000     3.696000     6.751000     2.605000
     6.751000    12.825000   -20.278143
 5438.0000
     8.156000    78.542999    14.486000     3.647000     7.288000     2.612000
     7.112000    14.970000   -19.929426
 5438.5000
     8.156000    75.027000    14.221000     3.428000     7.455000     2.611000
     7.364000    15.996000   -19.617908
 5439.0000
     8.156000    73.837997    15.236000     3.154000     7.639000     2.610000
     7.639000    16.257999   -19.587353
 5439.5000
     8.156000    73.696999    16.538000     3.004000     7.732000     2.611000
     7.854000    13.959000   -19.592667
 5440.0000
     8.156000    73.030998    16.879999     3.024000     7.923000     2.614000
     8.118000     9.866000   -19.597317
 5440.5000
     8.156000    71.818001    16.579000     3.186000     8.089000     2.614000
     8.218000     9.628000   -19.955996
 5441.0000
     8.156000    72.306999    16.500000     3.272000     8.258000     2.607000
     8.359000     9.914000   -20.314674
 5441.5000
     8.156000    74.205002    17.549999     3.190000     8.756000     2.607000
     8.628000    10.889000   -20.708557
 5442.0000
     8.155000    74.744003    17.476000     3.090000     9.699000     2.617000
     9.238000    11.531000   -21.666363
 5442.5000
     8.155000    69.008003    14.881000     3.185000    11.253000     2.636000
    10.437000    12.743000   -23.544777
 5443.0000
     8.155000    59.230999    10.472000     3.313000    13.098000     2.649000
    12.737000    18.290001   -25.453745
 5443.5000
     8.155000    48.437000     6.824000     3.270000    15.247000     2.651000
    15.543000    38.299999   -27.364042
 5444.0000
     8.143000    43.137001     6.282000     3.126000    17.747999     2.649000
    18.499001    58.250000   -28.863852
 5444.5000
     8.130000    42.088001     7.614000     3.010000    20.658001     2.646000
    20.230000    55.073002   -29.975756
 5445.0000
     8.128000    42.466999     8.476000     3.016000    24.047001     2.650000
    22.243000    43.477001   -30.602116
 5445.5000
     8.128000    43.013000     8.765000     3.058000    24.344000     2.651000
    24.455999    38.023998   -30.607430
 5446.0000
     8.128000    45.301998     8.965000     3.059000    24.224001     2.645000
    24.826000    36.153999   -30.259377
 5446.5000
     8.127000    49.307999     9.332000     3.045000    23.146999     2.624000
    24.313000    32.014000   -29.905350
 5447.0000
     8.127000    52.257000     9.483000     3.063000    21.135000     2.608000
    23.520000    27.098000   -29.209909
 5447.5000
     8.127000    54.479000     9.250000     3.163000    18.740999     2.602000
    22.337000    27.021000   -28.361700
 5448.0000
     8.159000    60.077000     9.284000     3.286000    15.177000     2.598000
    20.347000    30.118000   -27.055182
 5448.5000
     8.225000    70.072998    11.146000     3.305000    12.290000     2.580000
    16.532000    30.775999   -25.093739
 5449.0000
     8.236000    79.870003    15.200000     3.122000     9.952000     2.551000
    13.171000    24.518999   -22.819448
 5449.5000
     8.236000    92.149002    19.691999     2.782000     8.059000     2.530000
    10.493000    15.834000   -21.256538
 5450.0000
     8.259000   105.000999    24.117001     2.463000     6.526000     2.513000
     8.359000    10.226000   -20.050978
 5450.5000
     8.263000   111.633003    28.610001     2.229000     5.406000     2.511000
     6.660000     6.604000   -19.097822
 5451.0000
     8.263000   111.902000    29.980000     2.238000     5.172000     2.525000
     5.406000     5.959000   -18.144667
 5451.5000
     8.286000   106.264999    30.014999     2.332000     5.236000     2.542000
     5.369000     5.776000   -17.900898
 5452.0000
     8.290000    97.352997    24.879000     2.453000     5.573000     2.568000
     5.976000     6.648000   -17.303101
 5452.5000
     8.290000    88.642998    18.867001     2.632000     6.327000     2.599000
     6.946000     9.305000   -17.254612
 5453.0000
     8.280000    82.225998    16.025999     2.827000     7.184000     2.618000
     8.074000    13.022000   -17.259262
 5453.5000
     8.242000    76.959000    13.807000     2.901000     8.156000     2.627000
     9.384000    18.225000   -17.264576
 5454.0000
     8.235000    71.382004    12.724000     2.908000     9.260000     2.629000
    10.601000    24.635000   -17.849754
 5454.5000
     8.235000    67.084000    12.686000     2.954000    10.502000     2.622000
    11.161000    24.922001   -18.334635
 5455.0000
     8.235000    67.238998    14.088000     2.922000    11.476000     2.600000
    11.672000    23.295000   -18.703276
 5455.5000
     8.212000    70.165001    15.951000     2.735000    12.278000     2.546000
    12.207000    18.677000   -19.657761
 5456.0000
     8.208000    74.553001    17.420000     2.503000    12.922000     2.460000
    12.612000    14.975000   -20.613573
 5456.5000
     8.225000    72.901001    16.465000     2.466000    14.015000     2.439000
    13.321000    14.047000   -21.535511
 5457.0000
     8.258000    67.611000    12.100000     2.602000    15.388000     2.489000
    15.863000    14.480000   -21.818468
 5457.5000
     8.262000    58.785999     7.374000     2.823000    16.318001     2.542000
    20.166000    28.427999   -22.252869
 5458.0000
     8.238000    49.834999     3.368000     2.965000    17.033001     2.610000
    25.636000    61.771000   -22.257519
 5458.5000
     8.235000    44.729000     2.283000     2.985000    16.863001     2.625000
    28.533001   134.220001   -21.909466
 5459.0000
     8.235000    46.428001     2.377000     2.952000    16.072001     2.608000
    27.736000   170.830002   -21.561415
 5459.5000
     8.364000    50.757000     5.770000     2.857000    12.747000     2.570000
    20.787001   168.020004   -21.212700
 5460.0000
     8.445000    63.174999    10.110000     2.645000    10.110000     2.489000
    15.041000    95.595001   -20.864649
 5460.5000
     8.542000    79.705002    14.430000     2.453000     8.018000     2.415000
    10.883000    38.880001   -20.640142
 5461.0000
     8.619000    94.007004    18.738001     2.425000     6.360000     2.426000
     7.875000    15.813000   -20.169210
 5461.5000
     8.717000   102.857002    23.139999     2.500000     5.864000     2.467000
     6.009000     7.230000   -19.820496
