~VERSION INFORMATION
 VERS.                 2.0:   CWLS Log Ascii Standard    
 WRAP.                 YES:   Multiple Lines per Depth   
~WELL INFORMATION
#MNEM.UNIT              DATA                DESCRIPTION OF MNEMONIC  
#---------              ----                -----------------------
 CTRY  .  USA                               :Country
 CNTY  .                                    :County
 API   .                                    :API Reference Number
 DATE  .                                    :Log Date
 LOC   .                                    :Location
 STRT  .FT         4594.0000                :Top Depth  
 STOP  .FT         5863.0000                :Bottom Depth  
 STEP  .FT             .5000                :Increment  
 NULL  .          -99999.000                :Null Value  
 COMP  .                                    :Company   
 FLD   .                                    :Field  
 STAT  .   TEXAS                            :State  
 SRVC  .   SCHLUMBERGER                     :Service Company  
 WELL  .   B YATES 15                       :Well  
 UWI   .   422373671100                     :Unique Well ID  
~PARAMETER INFORMATION
#MNEM.UNIT        Value       Description                
#---------    -------------   -------------------------- 
 RUN   .                 1:   Run Number                 
 DATUM .FT       1072.0000:   Datum                      
 AMST  .DEG.F      80.0000:   Annual Mean Surface Temp.  
 BHT   .DEG.F     138.0000:   Bottom Hole Temperature    
 TD    .FT       5865.0000:   Loggers Total Depth        
 BITSIZ.IN          7.8750:   Bit Size                   
 MW    .LB/USGAL    9.3000:   Mud Weight                 
 RM    .OHM-M       4.3000:   Mud Resistivity            
 RMMT  .DEG.F      75.0000:   Mud Resistivity Meas. Temp.
 RMF   .OHM-M       3.6000:   Mud Filtrate Resistivity   
 RMFMT .DEG.F      75.0000:   Mud Filtrate Res.Meas.Temp.
 RMC   .OHM-M       4.8000:   Mud Cake Resistivity       
 RMCMT .DEG.F      75.0000:   Mud Cake Res. Meas. Temp.  
 RW    .OHM-M        .0539:   Formation Water Resistivity
 RWMT  .DEG.F      75.0000:   Formation Water Res.M.Temp.
 SALFM .PPM      150000.00:   Formation Water Salinity   
~CURVE INFORMATION
#MNEM.UNIT       API Code     Curve Description          
#---------    -------------   -------------------------- 
 DEPTH .FT                    : Depth                                   
 CALI  .INS                   : Caliper                                 
 GR    .API                   : Gamma Ray                               
 NPHI  .PU                    : Compensated Neutron (Limestone)         
 PEF   .B/E                   : Photoelectric Effect                    
 RILD  .OHMM                  : Deep Induction Resistivity              
 RHOB  .G/CC                  : Formation Density Compensated           
 RILM  .OHMM                  : Medium Induction Resistivity            
 RSFL  .OHMM                  : Spherically Focused Resistivity         
 SP    .MV                    : Spontaneous Potential                   
~A Log Data Section - Number of Curves =    10
# ...
 4687.0000
    10.658000   114.448997  -99999.0000  -99999.0000     4.565000     2.555000
     4.705000     4.975000   -12.844855
 4687.5000
    10.616000   116.289001  -99999.0000  -99999.0000     4.665000     2.544000
     4.889000     5.512000   -12.850169
 4688.0000
    10.375000   118.532997  -99999.0000  -99999.0000     4.731000     2.538000
     4.968000     6.106000   -12.854818
 4688.5000
     9.994000   119.446999  -99999.0000  -99999.0000     4.848000     2.540000
     5.029000     6.426000   -13.213497
 4689.0000
     9.652000   120.908997  -99999.0000  -99999.0000     4.848000     2.539000
     4.908000     6.559000   -14.067020
 4689.5000
     9.519000   123.822998  -99999.0000  -99999.0000     4.848000     2.530000
     4.848000     6.661000   -15.273244
 4690.0000
     9.573000   124.891998  -99999.0000  -99999.0000     4.743000     2.517000
     4.731000     6.385000   -16.408396
 4690.5000
     9.721000   123.541000  -99999.0000  -99999.0000     4.527000     2.503000
     4.583000     5.836000   -17.120440
 4691.0000
    10.162000   122.035004  -99999.0000  -99999.0000     4.320000     2.471000
     4.397000     5.335000   -17.832485
 4691.5000
    10.657000   120.757004  -99999.0000  -99999.0000     4.136000     2.425000
     4.344000     4.877000   -18.544527
 4692.0000
    10.934000   119.968002  -99999.0000  -99999.0000     3.988000     2.372000
     4.184000     4.558000   -18.549843
 4692.5000
    11.099000   117.932999  -99999.0000  -99999.0000     3.939000     2.353000
     4.037000     4.451000   -18.201790
 4693.0000
    11.064000   115.491997  -99999.0000  -99999.0000     3.859000     2.350000
     3.988000     4.506000   -18.206440
 4693.5000
    11.092000   113.805000  -99999.0000  -99999.0000     3.844000     2.359000
     3.939000     4.617000   -17.646502
 4694.0000
    11.295000   113.367996  -99999.0000  -99999.0000     3.843000     2.370000
     3.891000     4.616000   -17.156973
 4694.5000
    11.425000   113.698997  -99999.0000  -99999.0000     3.890000     2.373000
     3.890000     4.559000   -17.162287
 4695.0000
    11.444000   115.732002  -99999.0000  -99999.0000     3.889000     2.370000
     3.937000     4.559000   -17.166935
 4695.5000
    11.382000   118.596001  -99999.0000  -99999.0000     3.936000     2.363000
     3.936000     4.558000   -17.172249
 4696.0000
    11.257000   120.439003  -99999.0000  -99999.0000     3.962000     2.339000
     3.984000     4.642000   -17.178226
 4696.5000
    11.038000   121.908997  -99999.0000  -99999.0000     3.984000     2.292000
     4.016000     4.745000   -17.536242
 4697.0000
    10.789000   124.580002  -99999.0000  -99999.0000     3.990000     2.235000
     4.032000     4.851000   -17.894920
 4697.5000
    10.664000   126.375000  -99999.0000  -99999.0000     4.031000     2.205000
     4.031000     4.958000   -18.606964
 4698.0000
    10.636000   126.918999  -99999.0000  -99999.0000     4.080000     2.197000
     4.031000     4.960000   -18.964979
 4698.5000
    10.720000   125.528000  -99999.0000  -99999.0000     4.079000     2.208000
     4.079000     4.925000   -19.535543
 4699.0000
    10.861000   122.705002  -99999.0000  -99999.0000     4.079000     2.246000
     4.098000     4.899000   -19.328972
 4699.5000
    11.037000   117.384003  -99999.0000  -99999.0000     4.078000     2.318000
     4.128000     4.838000   -18.909849
 4700.0000
    11.213000   114.393997  -99999.0000  -99999.0000     4.077000     2.365000
     4.174000     4.779000   -18.632870
 4700.5000
    11.389000   114.136002  -99999.0000  -99999.0000     4.178000     2.388000
     4.264000     4.778000   -18.284819
 4701.0000
    11.529000   115.542000  -99999.0000  -99999.0000     4.217000     2.403000
     4.356000     4.942000   -18.290131
 4701.5000
    11.451000   117.561996  -99999.0000  -99999.0000     4.227000     2.399000
     4.385000     5.160000   -18.294781
 4702.0000
    11.080000   119.848000  -99999.0000  -99999.0000     4.227000     2.387000
     4.384000     5.301000   -18.653461
 4702.5000
    10.529000   123.026001  -99999.0000  -99999.0000     4.203000     2.373000
     4.307000     5.172000   -19.365503
 4703.0000
    10.154000   124.077003  -99999.0000  -99999.0000     4.174000     2.348000
     4.225000     4.932000   -20.076220
 4703.5000
    10.365000   121.287003  -99999.0000  -99999.0000     4.123000     2.309000
     4.161000     4.773000   -20.541174
 4704.0000
    10.721000   118.904999  -99999.0000  -99999.0000     4.072000     2.292000
     4.122000     4.650000   -20.793577
 4704.5000
    10.959000   117.768997  -99999.0000  -99999.0000     4.070000     2.303000
     4.071000     4.600000   -20.764351
 4705.0000
    10.732000   117.832001  -99999.0000  -99999.0000     4.021000     2.333000
     4.026000     4.650000   -20.450840
 4705.5000
    10.600000   115.608002  -99999.0000  -99999.0000     3.972000     2.380000
     4.021000     4.757000   -20.137991
 4706.0000
    10.910000   112.150002  -99999.0000  -99999.0000     3.971000     2.429000
     4.020000     4.887000   -19.826473
 4706.5000
    11.239000   110.165001  -99999.0000  -99999.0000     3.971000     2.473000
     4.069000     4.946000   -19.159595
 4707.0000
    11.523000   110.994003  -99999.0000  -99999.0000     4.019000     2.501000
     4.118000     4.858000   -18.846085
 4707.5000
    11.585000   113.677002  -99999.0000  -99999.0000     4.136000     2.495000
     4.187000     4.652000   -18.357218
 4708.0000
    11.541000   120.380997  -99999.0000  -99999.0000     4.336000     2.475000
     4.231000     4.651000   -18.361868
 4708.5000
    11.337000   123.732002  -99999.0000  -99999.0000     4.428000     2.454000
     4.328000     4.837000   -18.473455
 4709.0000
    10.913000   128.444000  -99999.0000  -99999.0000     4.482000     2.447000
     4.401000     5.166000   -19.079889
 4709.5000
    10.349000   133.785995  -99999.0000  -99999.0000     4.536000     2.466000
     4.475000     5.500000   -19.472445
 4710.0000
    10.113000   135.363998  -99999.0000  -99999.0000     4.808000     2.497000
     4.897000     5.856000   -19.796583
 4710.5000
    10.039000   135.778000  -99999.0000  -99999.0000     4.999000     2.521000
     5.247000     6.234000   -19.448530
 4711.0000
     9.971000   135.014999  -99999.0000  -99999.0000     5.260000     2.559000
     5.456000     6.637000   -19.100479
 4711.5000
     9.836000   131.218002  -99999.0000  -99999.0000     5.570000     2.600000
     5.777000     7.066000   -19.105129
 4712.0000
     9.682000   127.158997  -99999.0000  -99999.0000     5.741000     2.628000
     5.826000     7.431000   -19.110443
 4712.5000
     9.706000   124.075996  -99999.0000  -99999.0000     5.853000     2.616000
     5.997000     7.586000   -19.115757
 4713.0000
     9.876000   123.882004  -99999.0000  -99999.0000     5.996000     2.581000
     5.996000     7.652000   -19.120407
 4713.5000
    10.078000   125.487000  -99999.0000  -99999.0000     6.059000     2.539000
     6.068000     7.585000   -19.126385
 4714.0000
    10.245000   124.380997  -99999.0000  -99999.0000     6.142000     2.519000
     6.142000     7.517000   -19.485064
 4714.5000
    10.306000   121.594002  -99999.0000  -99999.0000     6.140000     2.490000
     5.992000     7.450000   -20.108101
 4715.0000
    10.133000   118.857002  -99999.0000  -99999.0000     6.139000     2.451000
     5.991000     7.295000   -20.554459
 4715.5000
     9.960000   117.507004  -99999.0000  -99999.0000     6.094000     2.441000
     5.917000     7.192000   -21.266502
 4716.0000
    10.011000   117.234001  -99999.0000  -99999.0000     5.989000     2.471000
     5.895000     7.017000   -21.625181
 4716.5000
    10.204000   118.246002  -99999.0000  -99999.0000     5.843000     2.502000
     5.772000     7.016000   -21.629829
 4717.0000
    10.345000   119.418999  -99999.0000  -99999.0000     5.701000     2.522000
     5.701000     7.014000   -21.988510
 4717.5000
    10.621000   118.737000  -99999.0000  -99999.0000     5.563000     2.528000
     5.631000     7.013000   -21.995152
