~VERSION INFORMATION
 VERS.                 2.0:   CWLS Log Ascii Standard    
 WRAP.                 YES:   Multiple Lines per Depth   
~WELL INFORMATION
#MNEM.UNIT              DATA                DESCRIPTION OF MNEMONIC  
#---------              ----                -----------------------
 CTRY  .  USA                               :Country
 CNTY  .                                    :County
 API   .                                    :API Reference Number
 DATE  .                                    :Log Date
 LOC   .                                    :Location
 STRT  .FT         4594.0000                :Top Depth  
 STOP  .FT         5863.0000                :Bottom Depth  
 STEP  .FT             .5000                :Increment  
 NULL  .          -99999.000                :Null Value  
 COMP  .                                    :Company   
 FLD   .                                    :Field  
 STAT  .   TEXAS                            :State  
 SRVC  .   SCHLUMBERGER                     :Service Company  
 WELL  .   B YATES 15                       :Well  
 UWI   .   422373671100                     :Unique Well ID  
~PARAMETER INFORMATION
#MNEM.UNIT        Value       Description                
#---------    -------------   -------------------------- 
 RUN   .                 1:   Run Number                 
 DATUM .FT       1072.0000:   Datum                      
 AMST  .DEG.F      80.0000:   Annual Mean Surface Temp.  
 BHT   .DEG.F     138.0000:   Bottom Hole Temperature    
 TD    .FT       5865.0000:   Loggers Total Depth        
 BITSIZ.IN          7.8750:   Bit Size                   
 MW    .LB/USGAL    9.3000:   Mud Weight                 
 RM    .OHM-M       4.3000:   Mud Resistivity            
 RMMT  .DEG.F      75.0000:   Mud Resistivity Meas. Temp.
 RMF   .OHM-M       3.6000:   Mud Filtrate Resistivity   
 RMFMT .DEG.F      75.0000:   Mud Filtrate Res.Meas.Temp.
 RMC   .OHM-M       4.8000:   Mud Cake Resistivity       
 RMCMT .DEG.F      75.0000:   Mud Cake Res. Meas. Temp.  
 RW    .OHM-M        .0539:   Formation Water Resistivity
 RWMT  .DEG.F      75.0000:   Formation Water Res.M.Temp.
 SALFM .PPM      150000.00:   Formation Water Salinity   
~CURVE INFORMATION
#MNEM.UNIT       API Code     Curve Description          
#---------    -------------   -------------------------- 
 DEPTH .FT                    : Depth                                   
 CALI  .INS                   : Caliper                                 
 GR    .API                   : Gamma Ray                               
 NPHI  .PU                    : Compensated Neutron (Limestone)         
 PEF   .B/E                   : Photoelectric Effect                    
 RILD  .OHMM                  : Deep Induction Resistivity              
 RHOB  .G/CC                  : Formation Density Compensated           
 RILM  .OHMM                  : Medium Induction Resistivity            
 RSFL  .OHMM                  : Spherically Focused Resistivity         
 SP    .MV                    : Spontaneous Potential                   
~A Log Data Section - Number of Curves =    10
# ...
 5586.0000
     8.583000    77.849998    17.907000     2.742000     7.629000     2.629000
     8.107000     9.740000   -17.936102
 5586.5000
     8.583000    72.806999    16.396000     2.768000     7.801000     2.620000
     8.393000    11.129000   -17.939423
 5587.0000
     8.583000    68.705002    15.585000     2.794000     8.126000     2.593000
     8.617000    12.351000   -17.954037
 5587.5000
     8.583000    67.172997    15.208000     2.818000     8.445000     2.570000
     8.814000    12.829000   -17.972633
 5588.0000
     8.582000    66.875000    15.035000     2.825000     8.775000     2.564000
     9.099000    12.816000   -17.991898
 5588.5000
     8.582000    67.950996    15.000000     2.795000     9.119000     2.571000
     9.394000    12.495000   -18.010494
 5589.0000
     8.582000    69.593002    14.933000     2.796000     9.476000     2.584000
     9.668000    12.482000   -18.029757
 5589.5000
     8.600000    70.494003    14.695000     2.848000     9.659000     2.595000
     9.777000    12.605000   -18.402386
 5590.0000
     8.609000    69.904999    14.391000     2.930000     9.768000     2.601000
     9.888000    12.772000   -18.420319
 5590.5000
     8.628000    67.362999    14.229000     3.016000     9.890000     2.606000
    10.011000    13.240000   -18.439581
 5591.0000
     8.635000    65.564003    14.343000     3.041000    10.085000     2.609000
    10.144000    13.094000   -18.458843
 5591.5000
     8.635000    65.710999    14.546000     3.014000    10.154000     2.609000
    10.279000    12.686000   -18.442238
 5592.0000
     8.635000    67.000999    14.674000     2.996000    10.111000     2.604000
    10.289000    12.652000   -18.135368
 5592.5000
     8.660000    66.575996    14.700000     3.028000     9.810000     2.610000
    10.299000    13.324000   -17.785324
 5593.0000
     8.689000    65.889999    14.776000     3.115000     9.468000     2.619000
    10.310000    14.279000   -17.791302
 5593.5000
     8.718000    67.122002    15.031000     3.235000     8.903000     2.629000
    10.006000    14.869000   -17.795952
 5594.0000
     8.746000    70.400002    15.648000     3.362000     8.171000     2.637000
     9.458000    14.676000   -17.801266
 5594.5000
     8.775000    75.943001    17.070000     3.407000     7.503000     2.637000
     8.831000    14.044000   -17.806580
 5595.0000
     8.804000    81.765999    18.688000     3.238000     6.890000     2.626000
     7.777000    13.020000   -18.166586
 5595.5000
     8.832000    86.977997    20.305000     3.005000     6.327000     2.607000
     6.544000    10.663000   -18.171900
 5596.0000
     8.860000    93.856003    22.500000     2.893000     5.837000     2.598000
     5.816000     8.052000   -18.531244
 5596.5000
     8.888000   102.662003    24.408001     2.838000     5.390000     2.592000
     5.206000     6.311000   -18.536558
 5597.0000
     8.917000   108.974998    25.464001     2.687000     4.977000     2.579000
     4.728000     5.860000   -18.896564
 5597.5000
     8.945000   111.554001    27.405001     2.505000     4.596000     2.536000
     4.413000     5.849000   -19.714884
 5598.0000
     8.983000   111.255997    29.440001     2.289000     4.321000     2.386000
     4.171000     5.876000   -21.268494
 5598.5000
     9.036000   115.168999    29.964001     2.067000     3.934000     2.228000
     3.959000     5.780000   -21.170855
 5599.0000
     9.044000   121.375000    29.910999     1.930000     3.840000     2.202000
     3.840000     5.479000   -23.184105
 5599.5000
     9.044000   125.531998    29.900000     1.867000     3.870000     2.187000
     3.790000     5.134000   -24.272099
 5600.0000
     9.068000   129.940002    29.900000     2.008000     3.883000     2.203000
     3.897000     4.806000   -23.900799
 5600.5000
     8.916000   119.386002    29.900000     2.266000     4.047000     2.371000
     4.147000     4.629000   -23.736073
 5601.0000
     8.796000   109.521004    28.403000     2.536000     4.170000     2.463000
     4.471000     5.484000   -23.246542
 5601.5000
     8.699000    99.992996    22.238001     2.579000     4.270000     2.535000
     4.825000     8.075000   -23.003437
 5602.0000
     8.669000    94.948997    18.547001     2.531000     4.326000     2.510000
     4.950000    11.847000   -22.691919
 5602.5000
     8.642000    98.267998    18.400000     2.120000     4.379000     2.412000
     4.950000    13.515000   -22.697231
 5603.0000
     8.642000   105.295998    20.261000     2.000000     4.377000     2.319000
     4.830000    12.073000   -22.702545
 5603.5000
     8.643000   111.855003    24.162001     1.916000     4.234000     2.279000
     4.574000     8.243000   -23.060560
 5604.0000
     8.706000   119.801003    28.104000     1.875000     3.997000     2.237000
     4.146000     5.566000   -23.419239
 5604.5000
     8.787000   126.515999    30.000000     1.891000     3.652000     2.195000
     3.573000     3.811000   -23.777918
 5605.0000
     9.494000   129.731003    30.000000     1.890000     3.233000     2.173000
     3.079000     3.357000   -23.782566
 5605.5000
    10.035000   129.869003    30.000000     1.809000     2.900000     2.163000
     2.973000     3.221000   -24.141247
 5606.0000
    10.085000   128.328995    30.000000     1.734000     2.818000     2.122000
     2.888000     3.289000   -24.500589
 5606.5000
     9.993000   126.693001    30.000000     1.709000     2.714000     2.055000
     2.782000     3.556000   -24.858604
 5607.0000
     9.611000   123.363998    30.000000     1.705000     2.650000     1.998000
     2.716000     3.735000   -25.217283
 5607.5000
     9.543000   119.764000    30.000000     1.685000     2.650000     1.998000
     2.749000     3.627000   -25.575298
 5608.0000
     9.656000   117.037003    30.000000     1.741000     2.721000     1.998000
     2.818000     3.501000   -25.580610
 5608.5000
     9.730000   118.081001    30.000000     1.849000     2.882000     2.006000
     2.947000     3.271000   -25.585260
 5609.0000
     9.338000   118.272003    29.955000     1.962000     3.060000     2.087000
     3.188000     3.225000   -25.237873
 5609.5000
     8.705000   114.749001    29.014000     2.134000     3.549000     2.203000
     3.728000     3.411000   -24.430182
 5610.0000
     8.234000   105.498001    24.162001     2.305000     4.115000     2.331000
     4.346000     4.281000   -23.481012
 5610.5000
     8.125000    95.790001    19.311001     2.372000     4.772000     2.453000
     5.066000     5.512000   -22.780260
 5611.0000
     8.031000    90.136002    14.983000     2.357000     5.534000     2.509000
     5.905000     8.814000   -22.078844
 5611.5000
     7.913000    90.103996    14.381000     2.255000     6.418000     2.515000
     6.883000    14.673000   -21.730127
 5612.0000
     7.840000    95.221001    17.882999     2.148000     7.443000     2.493000
     7.294000    20.985001   -21.382076
 5612.5000
     7.841000    99.487999    20.562000     2.086000     8.631000     2.480000
     8.091000    17.740999   -20.946348
 5613.0000
     7.847000    97.491997    20.004000     2.115000    10.010000     2.487000
    10.264000    13.447000   -20.686638
 5613.5000
     7.865000    93.266998    18.253000     2.170000    10.865000     2.500000
    11.109000    12.253000   -20.688631
 5614.0000
     7.842000    89.939003    17.899000     2.182000    10.974000     2.501000
    11.360000    13.245000   -20.691286
 5614.5000
     7.804000    89.514000    19.202000     2.120000    10.841000     2.471000
    11.247000    14.872000   -20.993507
 5615.0000
     7.756000    90.807999    21.684000     2.002000    10.579000     2.405000
    11.110000    15.464000   -21.225985
 5615.5000
     7.736000    87.524002    22.056999     1.949000    10.589000     2.331000
    11.504000    14.976000   -21.811163
 5616.0000
     7.730000    72.325996    17.430000     2.048000    11.250000     2.320000
    12.744000    13.990000   -24.212318
 5616.5000
     7.718000    52.639000    12.661000     2.223000    13.818000     2.372000
    15.983000    13.914000   -27.351421
