~VERSION INFORMATION
 VERS.                 2.0:   CWLS Log Ascii Standard    
 WRAP.                 YES:   Multiple Lines per Depth   
~WELL INFORMATION
#MNEM.UNIT              DATA                DESCRIPTION OF MNEMONIC  
#---------              ----                -----------------------
 CTRY  .  USA                               :Country
 CNTY  .                                    :County
 API   .                                    :API Reference Number
 DATE  .                                    :Log Date
 LOC   .                                    :Location
 STRT  .FT         4594.0000                :Top Depth  
 STOP  .FT         5863.0000                :Bottom Depth  
 STEP  .FT             .5000                :Increment  
 NULL  .          -99999.000                :Null Value  
 COMP  .                                    :Company   
 FLD   .                                    :Field  
 STAT  .   TEXAS                            :State  
 SRVC  .   SCHLUMBERGER                     :Service Company  
 WELL  .   B YATES 15                       :Well  
 UWI   .   422373671100                     :Unique Well ID  
~PARAMETER INFORMATION
#MNEM.UNIT        Value       Description                
#---------    -------------   -------------------------- 
 RUN   .                 1:   Run Number                 
 DATUM .FT       1072.0000:   Datum                      
 AMST  .DEG.F      80.0000:   Annual Mean Surface Temp.  
 BHT   .DEG.F     138.0000:   Bottom Hole Temperature    
 TD    .FT       5865.0000:   Loggers Total Depth        
 BITSIZ.IN          7.8750:   Bit Size                   
 MW    .LB/USGAL    9.3000:   Mud Weight                 
 RM    .OHM-M       4.3000:   Mud Resistivity            
 RMMT  .DEG.F      75.0000:   Mud Resistivity Meas. Temp.
 RMF   .OHM-M       3.6000:   Mud Filtrate Resistivity   
 RMFMT .DEG.F      75.0000:   Mud Filtrate Res.Meas.Temp.
 RMC   .OHM-M       4.8000:   Mud Cake Resistivity       
 RMCMT .DEG.F      75.0000:   Mud Cake Res. Meas. Temp.  
 RW    .OHM-M        .0539:   Formation Water Resistivity
 RWMT  .DEG.F      75.0000:   Formation Water Res.M.Temp.
 SALFM .PPM      150000.00:   Formation Water Salinity   
~CURVE INFORMATION
#MNEM.UNIT       API Code     Curve Description          
#---------    -------------   -------------------------- 
 DEPTH .FT                    : Depth                                   
 CALI  .INS                   : Caliper                                 
 GR    .API                   : Gamma Ray                               
 NPHI  .PU                    : Compensated Neutron (Limestone)         
 PEF   .B/E                   : Photoelectric Effect                    
 RILD  .OHMM                  : Deep Induction Resistivity              
 RHOB  .G/CC                  : Formation Density Compensated           
 RILM  .OHMM                  : Medium Induction Resistivity            
 RSFL  .OHMM                  : Spherically Focused Resistivity         
 SP    .MV                    : Spontaneous Potential                   
~A Log Data Section - Number of Curves =    10
# ...
 4842.0000
     8.527000    38.018002     5.453000     4.334000    29.497999     2.724000
    46.563999    96.742996   -13.513061
 4842.5000
     8.527000    34.025002     4.763000     4.450000    24.711000     2.734000
    44.342999   134.559006   -13.533651
 4843.0000
     8.530000    32.724998     4.673000     4.499000    20.701000     2.729000
    28.620001   133.059006   -13.909600
 4843.5000
     8.548000    35.681999     5.220000     4.317000    17.341999     2.697000
    18.466000    66.990997   -14.284884
 4844.0000
     8.569000    43.036999     7.632000     3.863000    14.527000     2.629000
    14.090000    28.597000   -14.306139
 4844.5000
     8.608000    54.223999    15.028000     3.370000    12.170000     2.556000
    11.888000    12.353000   -14.683416
 4845.0000
     8.615000    62.289001    19.784000     3.320000    10.167000     2.516000
    10.031000    10.460000   -15.059364
 4845.5000
     8.653000    71.566002    20.379999     3.368000     8.410000     2.512000
     8.464000    10.467000   -15.437306
 4846.0000
     8.706000    77.028999    19.712000     3.275000     6.957000     2.534000
     7.141000    10.117000   -15.459890
 4846.5000
     8.794000    85.371002    21.577000     3.081000     5.755000     2.568000
     6.025000     8.138000   -15.481145
 4847.0000
     8.938000    95.635002    24.673000     2.987000     5.198000     2.595000
     5.084000     6.184000   -16.225735
 4847.5000
     9.272000   104.209999    29.184000     2.815000     4.687000     2.600000
     4.729000     5.835000   -16.026468
 4848.0000
     9.608000   107.390999    30.000000     2.725000     4.321000     2.573000
     4.440000     5.883000   -15.902925
 4848.5000
     9.909000   107.702003    30.000000     2.615000     4.135000     2.537000
     4.208000     5.950000   -16.195847
 4849.0000
    10.084000   107.992996    30.000000     2.592000     4.055000     2.520000
     4.070000     5.806000   -15.765430
 4849.5000
    10.170000   108.353996    30.000000     2.592000     3.991000     2.512000
     4.021000     5.709000   -15.770080
 4850.0000
    10.220000   109.343002    30.000000     2.592000     3.922000     2.510000
     4.019000     5.500000   -15.926836
 4850.5000
    10.282000   109.005997    30.000000     2.587000     4.002000     2.511000
     4.052000     5.350000   -15.302470
 4851.0000
    10.195000   108.698997    30.000000     2.558000     4.134000     2.502000
     4.221000     5.116000   -15.223427
 4851.5000
    10.101000   108.221001    30.000000     2.533000     4.374000     2.488000
     4.431000     4.713000   -14.870727
 4852.0000
     9.984000   106.718002    30.000000     2.525000     4.735000     2.466000
     4.783000     4.713000   -14.518689
 4852.5000
     9.826000   101.879997    29.743000     2.623000     5.195000     2.463000
     5.141000     4.935000   -14.520019
 4853.0000
     9.443000    90.285004    27.462000     2.878000     5.699000     2.491000
     6.252000     6.282000   -14.521347
 4853.5000
     8.943000    74.834000    21.280001     3.260000     6.252000     2.542000
     7.603000    10.414000   -14.876040
 4854.0000
     8.791000    61.958000    15.621000     3.752000     6.658000     2.574000
     8.159000    17.389999   -15.231399
 4854.5000
     8.751000    59.480999    12.563000     3.511000     6.723000     2.521000
     7.644000    29.040001   -15.586756
 4855.0000
     8.825000    68.078003    12.969000     2.943000     6.723000     2.381000
     7.053000    24.451000   -16.296143
 4855.5000
     9.098000    81.168999    17.188999     2.417000     6.469000     2.258000
     6.507000    13.397000   -16.684711
 4856.0000
     9.555000    93.330002    25.655001     2.173000     5.963000     2.237000
     6.036000     7.340000   -17.007523
 4856.5000
     9.930000   104.555000    29.937000     2.348000     5.430000     2.311000
     5.671000     5.709000   -17.008850
 4857.0000
     9.995000   109.292999    30.100000     2.527000     5.192000     2.433000
     5.256000     5.327000   -17.010180
 4857.5000
    10.021000   110.718002    30.100000     2.641000     4.950000     2.520000
     5.026000     5.263000   -16.658142
 4858.0000
    10.009000   112.240997    30.063000     2.700000     4.830000     2.534000
     4.950000     5.367000   -16.527292
 4858.5000
     9.921000   114.059998    29.606001     2.712000     4.771000     2.540000
     5.011000     6.179000   -15.952742
 4859.0000
     9.738000   115.222000    28.042999     2.794000     4.713000     2.548000
     5.135000     6.781000   -15.600040
 4859.5000
     9.529000   116.296997    26.827000     2.906000     4.830000     2.558000
     5.327000     7.061000   -15.306455
 4860.0000
     9.381000   117.304001    26.427000     2.973000     4.890000     2.573000
     5.393000     7.081000   -14.894638
 4860.5000
     9.275000   118.728996    26.063000     2.943000     5.073000     2.592000
     5.344000     6.827000   -14.541938
 4861.0000
     9.265000   119.891998    25.937000     2.834000     5.011000     2.599000
     5.263000     6.642000   -14.543266
 4861.5000
     9.298000   119.792999    26.229000     2.715000     4.950000     2.599000
     5.183000     6.481000   -14.543930
 4862.0000
     9.347000   119.057999    27.186001     2.668000     4.830000     2.596000
     5.073000     5.948000   -14.545259
 4862.5000
     9.369000   117.247002    29.065001     2.649000     4.728000     2.588000
     4.950000     5.734000   -14.546587
 4863.0000
     9.369000   114.780998    29.799999     2.695000     4.656000     2.580000
     4.890000     5.595000   -14.547915
 4863.5000
     9.357000   113.450996    29.708000     2.837000     4.600000     2.572000
     4.831000     5.528000   -14.545259
 4864.0000
     9.277000   112.483002    29.171000     3.014000     4.601000     2.566000
     4.773000     5.689000   -14.542602
 4864.5000
     9.148000   109.952003    28.600000     3.067000     4.603000     2.565000
     4.775000     5.809000   -14.539945
 4865.0000
     9.029000   106.420998    28.729000     3.053000     4.605000     2.570000
     4.807000     5.884000   -14.181266
 4865.5000
     8.962000   103.675003    29.318001     2.986000     4.665000     2.578000
     4.858000     5.868000   -14.178610
 4866.0000
     8.935000   102.614998    29.290001     2.956000     4.667000     2.581000
     4.901000     5.818000   -14.175288
 4866.5000
     8.940000   102.223999    28.653000     2.934000     4.713000     2.583000
     5.010000     5.946000   -14.171968
 4867.0000
     8.945000   101.752998    27.853001     2.940000     4.729000     2.592000
     5.028000     6.115000   -13.814616
 4867.5000
     8.949000   100.976997    27.127001     2.975000     4.790000     2.599000
     5.030000     6.194000   -13.811296
 4868.0000
     8.950000   100.960999    26.818001     3.008000     4.793000     2.592000
     5.033000     6.197000   -13.809302
 4868.5000
     8.943000   101.922997    26.917999     2.983000     4.795000     2.574000
     5.036000     6.143000   -13.805318
 4869.0000
     8.927000   103.613998    27.146999     2.955000     4.798000     2.560000
     4.977000     6.090000   -13.802661
 4869.5000
     8.929000   105.435997    27.799999     2.907000     4.800000     2.570000
     4.964000     5.964000   -13.800004
 4870.0000
     8.935000   106.359001    27.745001     2.918000     4.687000     2.576000
     4.862000     5.858000   -13.796019
 4870.5000
     8.964000   106.928001    27.573000     2.977000     4.632000     2.567000
     4.747000     5.793000   -13.792697
 4871.0000
     9.003000   106.800003    28.065001     3.015000     4.578000     2.554000
     4.601000     5.705000   -14.144070
 4871.5000
     9.087000   108.680000    28.983999     2.991000     4.487000     2.562000
     4.525000     5.543000   -14.494778
 4872.0000
     9.201000   111.306000    29.855000     2.868000     4.473000     2.579000
     4.528000     5.425000   -14.872719
 4872.5000
     9.347000   111.752998    30.100000     2.716000     4.530000     2.582000
     4.530000     5.181000   -15.527640
