~VERSION INFORMATION
 VERS.                 2.0:   CWLS Log Ascii Standard    
 WRAP.                 YES:   Multiple Lines per Depth   
~WELL INFORMATION
#MNEM.UNIT              DATA                DESCRIPTION OF MNEMONIC  
#---------              ----                -----------------------
 CTRY  .  USA                               :Country
 CNTY  .                                    :County
 API   .                                    :API Reference Number
 DATE  .                                    :Log Date
 LOC   .                                    :Location
 STRT  .FT         4594.0000                :Top Depth  
 STOP  .FT         5863.0000                :Bottom Depth  
 STEP  .FT             .5000                :Increment  
 NULL  .          -99999.000                :Null Value  
 COMP  .                                    :Company   
 FLD   .                                    :Field  
 STAT  .   TEXAS                            :State  
 SRVC  .   SCHLUMBERGER                     :Service Company  
 WELL  .   B YATES 15                       :Well  
 UWI   .   422373671100                     :Unique Well ID  
~PARAMETER INFORMATION
#MNEM.UNIT        Value       Description                
#---------    -------------   -------------------------- 
 RUN   .                 1:   Run Number                 
 DATUM .FT       1072.0000:   Datum                      
 AMST  .DEG.F      80.0000:   Annual Mean Surface Temp.  
 BHT   .DEG.F     138.0000:   Bottom Hole Temperature    
 TD    .FT       5865.0000:   Loggers Total Depth        
 BITSIZ.IN          7.8750:   Bit Size                   
 MW    .LB/USGAL    9.3000:   Mud Weight                 
 RM    .OHM-M       4.3000:   Mud Resistivity            
 RMMT  .DEG.F      75.0000:   Mud Resistivity Meas. Temp.
 RMF   .OHM-M       3.6000:   Mud Filtrate Resistivity   
 RMFMT .DEG.F      75.0000:   Mud Filtrate Res.Meas.Temp.
 RMC   .OHM-M       4.8000:   Mud Cake Resistivity       
 RMCMT .DEG.F      75.0000:   Mud Cake Res. Meas. Temp.  
 RW    .OHM-M        .0539:   Formation Water Resistivity
 RWMT  .DEG.F      75.0000:   Formation Water Res.M.Temp.
 SALFM .PPM      150000.00:   Formation Water Salinity   
~CURVE INFORMATION
#MNEM.UNIT       API Code     Curve Description          
#---------    -------------   -------------------------- 
 DEPTH .FT                    : Depth                                   
 CALI  .INS                   : Caliper                                 
 GR    .API                   : Gamma Ray                               
 NPHI  .PU                    : Compensated Neutron (Limestone)         
 PEF   .B/E                   : Photoelectric Effect                    
 RILD  .OHMM                  : Deep Induction Resistivity              
 RHOB  .G/CC                  : Formation Density Compensated           
 RILM  .OHMM                  : Medium Induction Resistivity            
 RSFL  .OHMM                  : Spherically Focused Resistivity         
 SP    .MV                    : Spontaneous Potential                   
~A Log Data Section - Number of Curves =    10
# ...
 5741.0000
     7.141000    30.980000     5.100000     1.714000   116.677002     2.390000
   114.058998   220.587997   -89.157104
 5741.5000
     7.141000    32.112999     4.904000     1.688000   118.012001     2.392000
   103.100998   215.533997   -88.594505
 5742.0000
     7.141000    33.502998     5.036000     1.704000   115.257004     2.398000
    97.379997   189.860992   -88.243797
 5742.5000
     7.141000    35.266998     5.543000     1.742000   111.943001     2.404000
    93.592003   170.561005   -87.716408
 5743.0000
     7.141000    34.349998     5.957000     1.765000   108.318001     2.409000
    91.292000   174.602005   -87.189018
 5743.5000
     7.141000    31.283001     6.264000     1.764000   103.431999     2.413000
    89.262001   193.125000   -86.679565
 5744.0000
     7.147000    28.753000     6.014000     1.764000    98.768997     2.414000
    86.290001   230.210007   -86.134232
 5744.5000
     7.168000    28.011000     5.675000     1.763000    96.676003     2.411000
    82.445000   241.735001   -85.428833
 5745.0000
     7.168000    29.332001     5.686000     1.776000    97.738998     2.416000
    81.334000   228.274002   -84.369400
 5745.5000
     7.168000    30.608000     6.028000     1.832000   102.888000     2.434000
    82.227997   193.796005   -83.060890
 5746.0000
     7.168000    30.379000     6.158000     1.938000   108.762001     2.460000
    87.635002   183.921997   -81.397682
 5746.5000
     7.179000    28.601000     5.743000     2.188000   110.040001     2.486000
    94.726997   203.082993   -79.379120
 5747.0000
     7.195000    27.143000     5.287000     2.593000   108.239998     2.520000
   100.864998   230.240005   -76.578102
 5747.5000
     7.207000    27.101999     4.815000     2.944000    98.620003     2.562000
    99.620003   237.432007   -73.298180
 5748.0000
     7.235000    28.813999     4.849000     3.146000    81.885002     2.605000
    88.167999   220.707001   -70.016937
 5748.5000
     7.263000    34.126999     5.633000     3.199000    67.905998     2.631000
    70.481003   156.578003   -66.736351
 5749.0000
     7.282000    40.921001     6.725000     3.130000    56.313999     2.634000
    56.341000   111.083000   -63.952606
 5749.5000
     7.296000    46.695999     7.804000     3.011000    47.528000     2.625000
    45.037998    78.806999   -62.998787
 5750.0000
     7.320000    51.515999     8.839000     2.816000    41.526001     2.614000
    36.002998    55.908001   -61.688946
 5750.5000
     7.364000    53.884998     9.875000     2.643000    38.674999     2.601000
    32.969002    40.053001   -60.343235
 5751.0000
     7.383000    53.096001     9.987000     2.600000    37.368000     2.588000
    32.245998    38.277000   -59.003498
 5751.5000
     7.397000    50.230999     9.155000     2.693000    36.002998     2.591000
    32.875000    38.632999   -58.160606
 5752.0000
     7.409000    45.661999     8.431000     2.836000    34.459000     2.602000
    33.693001    49.091000   -57.812553
 5752.5000
     7.421000    41.437000     7.565000     2.906000    33.452000     2.614000
    33.706001    63.801998   -57.817871
 5753.0000
     7.443000    40.486000     7.400000     2.841000    32.643002     2.614000
    32.567001    67.206001   -58.458839
 5753.5000
     7.487000    43.695000     7.843000     2.693000    32.643002     2.602000
    31.466999    62.258999   -59.806545
 5754.0000
     7.518000    48.985001     9.283000     2.577000    33.773998     2.583000
    31.082001    49.188999   -61.162216
 5754.5000
     7.519000    50.436001     9.975000     2.420000    37.407001     2.560000
    31.695999    41.703999   -62.519222
 5755.0000
     7.519000    45.824001     9.603000     2.330000    38.917000     2.549000
    34.937000    45.014000   -63.876221
 5755.5000
     7.519000    40.361000     8.575000     2.301000    40.199001     2.546000
    38.821999    61.685001   -64.948273
 5756.0000
     7.519000    37.851002     7.687000     2.305000    41.673000     2.543000
    40.667000    84.529999   -65.664970
 5756.5000
     7.519000    38.655998     7.500000     2.413000    45.130001     2.542000
    42.598999    92.938004   -65.315590
 5757.0000
     7.517000    39.858002     7.500000     2.799000    49.131001     2.548000
    45.459000    86.713997   -64.253502
 5757.5000
     7.515000    39.964001     7.449000     3.292000    56.195999     2.565000
    49.266998    77.738998   -62.124008
 5758.0000
     7.513000    38.796001     7.077000     3.693000    64.277000     2.605000
    54.310001    77.891998   -59.528896
 5758.5000
     7.511000    36.070000     6.479000     4.127000    70.468002     2.641000
    60.875000   103.708000   -56.005878
 5759.0000
     7.508000    34.345001     5.962000     4.218000    72.365997     2.663000
    83.213997   150.332993   -52.484184
 5759.5000
     7.506000    34.904999     5.507000     4.234000    72.365997     2.676000
    95.171997   217.919006   -48.961823
 5760.0000
     7.504000    38.041000     5.300000     4.140000    68.906998     2.683000
    93.199997   315.890015   -45.139236
 5760.5000
     7.502000    41.317001     5.645000     3.936000    51.612000     2.686000
    74.527000   312.993988   -41.045647
 5761.0000
     7.500000    45.405998     6.994000     3.656000    35.944000     2.683000
    51.667000   192.529007   -36.952721
 5761.5000
     7.499000    53.243999     8.916000     3.402000    25.033001     2.674000
    35.818001    97.109001   -32.859798
 5762.0000
     7.499000    67.757004    12.000000     3.152000    17.433001     2.646000
    24.830999    48.980000   -28.766212
 5762.5000
     7.498000    85.009003    17.084000     2.920000    12.141000     2.612000
    16.900999    25.618000   -25.063848
 5763.0000
     7.498000   100.160004    22.218000     2.794000    10.862000     2.595000
    11.403000    16.785999   -23.020042
 5763.5000
     7.498000   110.417999    24.141001     2.851000     9.889000     2.594000
     8.538000    10.998000   -21.469753
 5764.0000
     7.498000   112.810997    23.280001     2.960000     8.786000     2.594000
     8.099000     8.964000   -19.497684
 5764.5000
     7.498000   110.055000    21.667999     3.022000     8.115000     2.587000
     7.823000     8.981000   -17.241327
 5765.0000
     7.498000   104.721001    20.188000     3.053000     7.842000     2.580000
     7.747000     9.902000   -15.550887
 5765.5000
     7.498000    99.952003    19.063999     3.060000     7.937000     2.581000
     7.841000    11.541000   -14.496106
 5766.0000
     7.498000    93.777000    17.951000     2.987000     8.268000     2.591000
     8.102000    13.452000   -14.360605
 5766.5000
     7.497000    88.932999    17.135000     2.884000     8.721000     2.600000
     8.800000    14.340000   -14.506734
 5767.0000
     7.497000    87.304001    16.747000     2.785000     9.353000     2.607000
     9.404000    15.001000   -14.511383
 5767.5000
     7.497000    87.620003    16.261000     2.747000    10.030000     2.612000
    10.079000    15.483000   -14.163997
 5768.0000
     7.497000    87.001999    15.743000     2.691000    10.756000     2.617000
    10.803000    16.136000   -13.815945
 5768.5000
     7.497000    83.347000    15.225000     2.640000    11.535000     2.618000
    11.579000    17.309000   -13.467230
 5769.0000
     7.497000    79.626999    14.708000     2.638000    12.370000     2.616000
    12.410000    18.448000   -13.472543
 5769.5000
     7.466000    76.195999    14.208000     2.700000    13.266000     2.615000
    13.301000    19.596001   -13.548265
 5770.0000
     7.442000    74.290001    13.708000     2.822000    14.227000     2.613000
    14.256000    21.238001   -13.836535
 5770.5000
     7.404000    76.209999    13.208000     2.826000    15.257000     2.609000
    15.280000    23.311001   -14.477509
 5771.0000
     7.385000    78.351997    12.708000     2.796000    16.362000     2.607000
    16.377001    25.891001   -14.912572
 5771.5000
     7.341000    77.250000    12.208000     2.770000    17.547001     2.607000
    17.554001    27.615000   -15.762774
