~VERSION INFORMATION
 VERS.                 2.0:   CWLS Log Ascii Standard    
 WRAP.                 YES:   Multiple Lines per Depth   
~WELL INFORMATION
#MNEM.UNIT              DATA                DESCRIPTION OF MNEMONIC  
#---------              ----                -----------------------
 CTRY  .  USA                               :Country
 CNTY  .                                    :County
 API   .                                    :API Reference Number
 DATE  .                                    :Log Date
 LOC   .                                    :Location
 STRT  .FT         4594.0000                :Top Depth  
 STOP  .FT         5863.0000                :Bottom Depth  
 STEP  .FT             .5000                :Increment  
 NULL  .          -99999.000                :Null Value  
 COMP  .                                    :Company   
 FLD   .                                    :Field  
 STAT  .   TEXAS                            :State  
 SRVC  .   SCHLUMBERGER                     :Service Company  
 WELL  .   B YATES 15                       :Well  
 UWI   .   422373671100                     :Unique Well ID  
~PARAMETER INFORMATION
#MNEM.UNIT        Value       Description                
#---------    -------------   -------------------------- 
 RUN   .                 1:   Run Number                 
 DATUM .FT       1072.0000:   Datum                      
 AMST  .DEG.F      80.0000:   Annual Mean Surface Temp.  
 BHT   .DEG.F     138.0000:   Bottom Hole Temperature    
 TD    .FT       5865.0000:   Loggers Total Depth        
 BITSIZ.IN          7.8750:   Bit Size                   
 MW    .LB/USGAL    9.3000:   Mud Weight                 
 RM    .OHM-M       4.3000:   Mud Resistivity            
 RMMT  .DEG.F      75.0000:   Mud Resistivity Meas. Temp.
 RMF   .OHM-M       3.6000:   Mud Filtrate Resistivity   
 RMFMT .DEG.F      75.0000:   Mud Filtrate Res.Meas.Temp.
 RMC   .OHM-M       4.8000:   Mud Cake Resistivity       
 RMCMT .DEG.F      75.0000:   Mud Cake Res. Meas. Temp.  
 RW    .OHM-M        .0539:   Formation Water Resistivity
 RWMT  .DEG.F      75.0000:   Formation Water Res.M.Temp.
 SALFM .PPM      150000.00:   Formation Water Salinity   
~CURVE INFORMATION
#MNEM.UNIT       API Code     Curve Description          
#---------    -------------   -------------------------- 
 DEPTH .FT                    : Depth                                   
 CALI  .INS                   : Caliper                                 
 GR    .API                   : Gamma Ray                               
 NPHI  .PU                    : Compensated Neutron (Limestone)         
 PEF   .B/E                   : Photoelectric Effect                    
 RILD  .OHMM                  : Deep Induction Resistivity              
 RHOB  .G/CC                  : Formation Density Compensated           
 RILM  .OHMM                  : Medium Induction Resistivity            
 RSFL  .OHMM                  : Spherically Focused Resistivity         
 SP    .MV                    : Spontaneous Potential                   
~A Log Data Section - Number of Curves =    10
# ...
 5338.0000
    10.002000   111.135002    29.290001     2.776000     3.957000     2.593000
     4.155000     4.682000   -22.537819
 5338.5000
     9.927000   112.610001    28.059000     2.747000     4.008000     2.580000
     4.157000     4.992000   -22.921074
 5339.0000
     9.842000   111.790001    27.349001     2.716000     4.058000     2.561000
     4.209000     5.328000   -23.474369
 5339.5000
     9.742000   110.757004    27.673000     2.663000     4.060000     2.536000
     4.211000     5.572000   -24.027664
 5340.0000
     9.677000   110.955002    28.375000     2.542000     4.013000     2.492000
     4.213000     5.642000   -24.581625
 5340.5000
     9.683000   111.787003    29.101999     2.276000     3.918000     2.391000
     4.113000     5.644000   -25.376032
 5341.0000
     9.763000   111.940002    29.777000     1.996000     3.825000     2.246000
     3.968000     5.646000   -26.385647
 5341.5000
    10.064000   110.567001    30.000000     1.753000     3.781000     2.109000
     3.874000     5.552000   -26.898424
 5342.0000
    10.548000   109.599998    30.000000     1.635000     3.737000     2.014000
     3.829000     5.089000   -27.263081
 5342.5000
    11.033000   109.429001    30.000000     1.594000     3.738000     1.996000
     3.877000     4.432000   -26.912373
 5343.0000
    11.413000   109.129997    30.000000     1.641000     3.838000     1.996000
     3.927000     4.133000   -26.562328
 5343.5000
    11.468000   108.349998    30.000000     1.723000     4.056000     1.996000
     4.106000     4.027000   -25.857592
 5344.0000
    11.298000   104.327003    29.917999     1.780000     4.583000     1.996000
     4.873000     4.170000   -25.151525
 5344.5000
    10.684000    94.261002    28.208000     1.838000     5.180000     2.013000
     5.982000     5.270000   -24.375717
 5345.0000
     9.820000    79.250000    22.596001     1.940000     5.854000     2.090000
     7.343000     7.536000   -23.386028
 5345.5000
     9.240000    69.819000    16.055000     2.614000     6.039000     2.207000
     8.365000    12.824000   -23.036648
 5346.0000
     9.014000    62.862000    10.571000     3.119000     6.330000     2.324000
     8.629000    32.293999   -21.975889
 5346.5000
     8.859000    62.337002    11.422000     3.129000     6.404000     2.441000
     7.772000    48.985001   -21.626509
 5347.0000
     8.842000    75.001999    15.533000     2.943000     6.181000     2.543000
     6.878000    24.667000   -21.276464
 5347.5000
     8.823000    91.434998    20.764000     2.789000     5.595000     2.583000
     6.056000    10.039000   -21.636473
 5348.0000
     8.821000    93.625999    23.075001     2.663000     4.962000     2.565000
     5.395000     6.579000   -22.173826
 5348.5000
     8.822000   102.734001    24.680000     2.542000     4.575000     2.541000
     4.921000     5.231000   -22.729115
 5349.0000
     8.827000   108.507004    26.315001     2.436000     4.364000     2.501000
     4.578000     4.690000   -23.531492
 5349.5000
     8.836000   109.240997    28.233999     2.400000     4.139000     2.464000
     4.326000     4.476000   -24.118662
 5350.0000
     8.832000   108.873001    29.806999     2.449000     3.924000     2.444000
     4.119000     4.653000   -24.859268
 5350.5000
     8.853000   106.597000    29.164000     2.557000     3.782000     2.411000
     3.883000     4.592000   -25.181416
 5351.0000
     8.849000    99.467003    27.917000     2.579000     3.528000     2.361000
     3.705000     5.599000   -25.892132
 5351.5000
     8.862000    99.049004    27.395000     2.348000     3.324000     2.334000
     3.534000     6.868000   -26.434797
 5352.0000
     8.919000    99.060997    28.368999     2.083000     3.095000     2.243000
     3.234000     7.382000   -26.959532
 5352.5000
     9.180000    98.939003    30.000000     1.897000     2.917000     2.133000
     2.980000     6.279000   -27.314890
 5353.0000
     9.682000    98.824997    30.000000     1.865000     2.685000     2.055000
     2.820000     4.819000   -27.316217
 5353.5000
    10.077000    99.831001    30.000000     1.892000     2.621000     2.050000
     2.752000     3.698000   -26.962191
 5354.0000
    10.201000   102.378998    30.000000     1.918000     2.557000     2.074000
     2.719000     2.969000   -26.347784
 5354.5000
    10.181000   105.814003    30.000000     1.939000     2.610000     2.100000
     2.775000     2.821000   -25.544744
 5355.0000
    10.042000   107.839996    29.865000     1.991000     2.719000     2.120000
     2.909000     2.873000   -24.480663
 5355.5000
     9.796000   105.209000    28.542999     2.343000     2.880000     2.166000
     3.284000     3.526000   -24.125969
 5356.0000
     9.297000    95.481003    24.128000     3.159000     3.477000     2.280000
     4.245000     5.776000   -23.771940
 5356.5000
     8.552000    77.525002    16.627001     3.949000     5.171000     2.448000
     6.292000    16.881001   -23.773268
 5357.0000
     8.024000    57.238998     8.002000     4.392000     8.340000     2.604000
     9.326000    47.466000   -24.413576
 5357.5000
     7.912000    44.386002     2.154000     4.512000    13.449000     2.705000
    13.824000   117.566002   -24.840006
 5358.0000
     7.857000    39.716000     1.665000     4.511000    21.687000     2.727000
    20.490000   254.595001   -25.365404
 5358.5000
     7.853000    37.610001     1.600000     4.343000    34.973000     2.727000
    30.372000   250.526993   -25.552713
 5359.0000
     7.853000    37.811001     1.672000     4.005000    43.443001     2.721000
    45.018002   197.664993   -25.553377
 5359.5000
     7.863000    38.390999     1.909000     3.634000    40.275002     2.710000
    54.894001   153.858002   -25.554043
 5360.0000
     7.881000    42.292999     2.246000     3.156000    31.358000     2.667000
    45.806000   133.216003   -25.200678
 5360.5000
     7.881000    52.546001     4.013000     2.704000    23.052999     2.577000
    26.309000    99.137001   -24.845984
 5361.0000
     7.871000    67.209000     9.167000     2.403000    16.947001     2.485000
    15.703000    48.511002   -24.492619
 5361.5000
     7.854000    88.508003    16.049999     2.295000    12.516000     2.407000
    12.860000    23.738001   -24.143904
 5362.0000
     7.854000   106.282997    21.283001     2.320000    10.912000     2.379000
    10.533000    12.441000   -24.139254
 5362.5000
     7.865000   111.320999    21.490999     2.466000     9.514000     2.416000
     8.626000     9.958000   -23.999104
 5363.0000
     7.907000   109.032997    18.471001     2.598000     8.295000     2.460000
     7.065000    11.009000   -23.787882
 5363.5000
     8.065000   105.859001    17.377001     2.579000     7.232000     2.439000
     6.126000    11.819000   -23.789209
 5364.0000
     8.317000   104.269997    19.330999     2.448000     6.305000     2.359000
     5.607000    11.964000   -24.144567
 5364.5000
     8.457000   103.901001    24.006001     2.316000     5.497000     2.257000
     5.133000    10.225000   -24.145895
 5365.0000
     8.548000   105.963997    28.066000     2.205000     4.793000     2.152000
     4.698000     7.517000   -24.501917
 5365.5000
     8.735000   111.563004    30.000000     2.098000     4.178000     2.052000
     4.301000     5.527000   -24.502583
 5366.0000
     9.065000   117.906998    30.000000     2.032000     3.681000     1.997000
     3.936000     4.598000   -24.858604
 5366.5000
     9.318000   120.957001    30.000000     2.049000     3.438000     1.998000
     3.650000     4.332000   -24.859934
 5367.0000
     9.319000   120.190002    30.000000     2.075000     3.314000     2.024000
     3.523000     4.192000   -24.860598
 5367.5000
     9.036000   115.570000    30.041000     2.107000     3.275000     2.120000
     3.397000     4.234000   -24.507896
 5368.0000
     8.804000   111.498001    29.770000     2.150000     3.324000     2.264000
     3.482000     4.287000   -24.509224
 5368.5000
     8.675000   110.514000    28.551001     2.195000     3.436000     2.388000
     3.762000     4.287000   -24.155195
