~VERSION INFORMATION
 VERS.                 2.0:   CWLS Log Ascii Standard    
 WRAP.                 YES:   Multiple Lines per Depth   
~WELL INFORMATION
#MNEM.UNIT              DATA                DESCRIPTION OF MNEMONIC  
#---------              ----                -----------------------
 CTRY  .  USA                               :Country
 CNTY  .                                    :County
 API   .                                    :API Reference Number
 DATE  .                                    :Log Date
 LOC   .                                    :Location
 STRT  .FT         4594.0000                :Top Depth  
 STOP  .FT         5863.0000                :Bottom Depth  
 STEP  .FT             .5000                :Increment  
 NULL  .          -99999.000                :Null Value  
 COMP  .                                    :Company   
 FLD   .                                    :Field  
 STAT  .   TEXAS                            :State  
 SRVC  .   SCHLUMBERGER                     :Service Company  
 WELL  .   B YATES 15                       :Well  
 UWI   .   422373671100                     :Unique Well ID  
~PARAMETER INFORMATION
#MNEM.UNIT        Value       Description                
#---------    -------------   -------------------------- 
 RUN   .                 1:   Run Number                 
 DATUM .FT       1072.0000:   Datum                      
 AMST  .DEG.F      80.0000:   Annual Mean Surface Temp.  
 BHT   .DEG.F     138.0000:   Bottom Hole Temperature    
 TD    .FT       5865.0000:   Loggers Total Depth        
 BITSIZ.IN          7.8750:   Bit Size                   
 MW    .LB/USGAL    9.3000:   Mud Weight                 
 RM    .OHM-M       4.3000:   Mud Resistivity            
 RMMT  .DEG.F      75.0000:   Mud Resistivity Meas. Temp.
 RMF   .OHM-M       3.6000:   Mud Filtrate Resistivity   
 RMFMT .DEG.F      75.0000:   Mud Filtrate Res.Meas.Temp.
 RMC   .OHM-M       4.8000:   Mud Cake Resistivity       
 RMCMT .DEG.F      75.0000:   Mud Cake Res. Meas. Temp.  
 RW    .OHM-M        .0539:   Formation Water Resistivity
 RWMT  .DEG.F      75.0000:   Formation Water Res.M.Temp.
 SALFM .PPM      150000.00:   Formation Water Salinity   
~CURVE INFORMATION
#MNEM.UNIT       API Code     Curve Description          
#---------    -------------   -------------------------- 
 DEPTH .FT                    : Depth                                   
 CALI  .INS                   : Caliper                                 
 GR    .API                   : Gamma Ray                               
 NPHI  .PU                    : Compensated Neutron (Limestone)         
 PEF   .B/E                   : Photoelectric Effect                    
 RILD  .OHMM                  : Deep Induction Resistivity              
 RHOB  .G/CC                  : Formation Density Compensated           
 RILM  .OHMM                  : Medium Induction Resistivity            
 RSFL  .OHMM                  : Spherically Focused Resistivity         
 SP    .MV                    : Spontaneous Potential                   
~A Log Data Section - Number of Curves =    10
# ...
 5834.0000
     7.222000    70.713997    27.978001     2.608000     3.859000     2.541000
     3.880000     6.478000   -17.327011
 5834.5000
     7.221000    69.802002    28.000000     2.635000     3.786000     2.548000
     3.833000     6.163000   -16.978296
 5835.0000
     7.221000    68.980003    27.606001     2.672000     3.786000     2.555000
     3.832000     5.507000   -16.983610
 5835.5000
     7.221000    70.029999    26.714001     2.740000     3.739000     2.563000
     3.785000     4.982000   -16.988924
 5836.0000
     7.221000    67.127998    26.306000     2.793000     3.682000     2.564000
     3.693000     5.022000   -16.994902
 5836.5000
     7.194000    66.194000    26.202000     2.794000     3.648000     2.566000
     3.650000     5.071000   -16.999552
 5837.0000
     7.194000    65.694000    26.200001     2.806000     3.603000     2.563000
     3.647000     5.133000   -17.004866
 5837.5000
     7.247000    66.428001    26.200001     2.795000     3.663000     2.553000
     3.692000     5.213000   -17.363544
 5838.0000
     7.275000    66.754997    26.495001     2.744000     3.829000     2.546000
     3.737000     5.386000   -17.721558
 5838.5000
     7.222000    66.753998    26.697001     2.672000     3.828000     2.551000
     3.782000     5.961000   -18.080238
 5839.0000
     7.167000    66.748001    26.503000     2.638000     3.875000     2.566000
     3.802000     6.287000   -19.003504
 5839.5000
     7.139000    67.277000    26.007999     2.637000     3.874000     2.583000
     3.827000     6.467000   -19.502998
 5840.0000
     7.166000    66.932999    25.902000     2.637000     3.874000     2.587000
     3.827000     6.408000   -19.508310
 5840.5000
     7.184000    66.199997    26.392000     2.611000     3.826000     2.585000
     3.826000     6.049000   -18.913834
 5841.0000
     7.219000    66.717003    26.497999     2.579000     3.826000     2.583000
     3.826000     5.935000   -17.965328
 5841.5000
     7.247000    68.641998    26.402000     2.533000     3.825000     2.579000
     3.825000     5.934000   -17.404726
 5842.0000
     7.247000    70.614998    25.514000     2.532000     3.825000     2.574000
     3.825000     5.933000   -17.410040
 5842.5000
     7.247000    69.652000    25.697001     2.584000     3.840000     2.568000
     3.871000     5.771000   -17.061989
 5843.0000
     7.220000    57.646000    26.586000     2.637000     3.871000     2.566000
     3.966000     5.652000   -16.642866
 5843.5000
     7.220000    28.834999    27.486000     2.664000     3.905000     2.562000
     4.064000     5.579000   -16.047726
 5844.0000
     7.219000     7.996000    27.992001     2.691000     3.965000     2.564000
     4.163000     5.672000   -15.663805
 5844.5000
     7.213000    18.535000    28.197001     2.664000     4.062000     2.577000
     4.265000     6.156000   -15.315754
 5845.0000
     7.166000    38.847000    28.200001     2.638000     4.158000     2.592000
     4.414000     6.755000   -14.976337
 5845.5000
     7.165000  -99999.0000    27.806000     2.612000     4.311000     2.609000
     4.533000     7.151000   -14.282228
 5846.0000
     7.165000  -99999.0000    27.209000     2.612000     4.511000     2.604000
     4.700000     7.202000   -14.294184
 5846.5000
     7.164000  -99999.0000    26.806000     2.638000     4.868000     2.594000
     4.809000     7.378000   -14.342007
 5847.0000
     7.163000  -99999.0000    26.799999     2.638000     5.066000     2.588000
     4.909000     7.744000   -14.672789
 5847.5000
     7.163000  -99999.0000    27.094999     2.664000     5.197000     2.585000
     5.011000     8.231000   -14.686073
 5848.0000
     7.162000  -99999.0000    27.395000     2.638000     5.242000     2.588000
     5.115000     8.230000   -14.343335
 5848.5000
     7.161000  -99999.0000    27.302000     2.586000     5.306000     2.592000
     5.178000     8.129000   -14.355956
 5849.0000
     7.160000  -99999.0000    27.103001     2.499000     5.370000     2.593000
     5.177000     8.255000   -14.014546
 5849.5000
     7.160000  -99999.0000    27.002001     2.454000     5.369000     2.593000
     5.109000     8.633000   -14.032481
 5850.0000
     7.159000  -99999.0000    27.393999     2.500000     5.368000     2.582000
     4.942000     8.670000   -14.411086
 5850.5000
     7.158000  -99999.0000    27.597000     2.454000     5.367000     2.572000
     4.717000     7.980000   -14.791684
 5851.0000
     7.157000  -99999.0000    27.600000     2.543000     5.363000     2.570000
     4.470000     6.936000   -15.733548
 5851.5000
     7.167000  -99999.0000    27.305000     2.727000     5.359000     2.578000
     4.415000     6.114000   -16.261602
 5852.0000
     7.183000  -99999.0000    26.906000     2.926000     5.354000     2.600000
     4.524000     5.775000   -16.642200
 5852.5000
     7.182000  -99999.0000    26.997999     3.032000     5.350000     2.617000
     4.637000     5.635000   -17.023464
 5853.0000
     7.181000  -99999.0000    27.197001     3.043000     5.346000     2.623000
     4.696000     5.638000   -17.048704
 5853.5000
     7.180000  -99999.0000    27.396999     2.957000     5.341000     2.615000
     4.755000     5.709000   -16.720579
 5854.0000
  -99999.0000  -99999.0000  -99999.0000  -99999.0000     5.337000  -99999.0000
     4.759000     5.707000   -16.391790
 5854.5000
  -99999.0000  -99999.0000  -99999.0000  -99999.0000     5.333000  -99999.0000
     4.766000     5.704000   -16.062338
 5855.0000
  -99999.0000  -99999.0000  -99999.0000  -99999.0000     5.329000  -99999.0000
     4.774000     5.702000   -16.088242
 5855.5000
  -99999.0000  -99999.0000  -99999.0000  -99999.0000     5.324000  -99999.0000
     4.781000     5.700000   -15.759454
 5856.0000
  -99999.0000  -99999.0000  -99999.0000  -99999.0000     5.320000  -99999.0000
     4.789000     5.697000   -15.784694
 5856.5000
  -99999.0000  -99999.0000  -99999.0000  -99999.0000     5.316000  -99999.0000
     4.796000     5.695000   -15.810598
 5857.0000
  -99999.0000  -99999.0000  -99999.0000  -99999.0000     5.312000  -99999.0000
     4.803000     5.693000   -15.836502
 5857.5000
  -99999.0000  -99999.0000  -99999.0000  -99999.0000     5.307000  -99999.0000
     4.811000     5.690000   -15.862407
 5858.0000
  -99999.0000  -99999.0000  -99999.0000  -99999.0000     5.303000  -99999.0000
     4.818000     5.688000   -16.243670
 5858.5000
  -99999.0000  -99999.0000  -99999.0000  -99999.0000     5.299000  -99999.0000
     4.826000     5.686000   -16.269573
 5859.0000
  -99999.0000  -99999.0000  -99999.0000  -99999.0000     5.295000  -99999.0000
     4.833000     5.684000   -16.295479
 5859.5000
  -99999.0000  -99999.0000  -99999.0000  -99999.0000     5.290000  -99999.0000
     4.841000     5.681000   -16.320719
 5860.0000
  -99999.0000  -99999.0000  -99999.0000  -99999.0000     5.286000  -99999.0000
     4.848000     5.679000   -16.347288
 5860.5000
  -99999.0000  -99999.0000  -99999.0000  -99999.0000     5.282000  -99999.0000
     4.856000     5.677000   -16.373192
 5861.0000
  -99999.0000  -99999.0000  -99999.0000  -99999.0000     5.278000  -99999.0000
     4.863000     5.674000   -16.398434
 5861.5000
  -99999.0000  -99999.0000  -99999.0000  -99999.0000     5.273000  -99999.0000
     4.871000     5.672000   -16.424337
 5862.0000
  -99999.0000  -99999.0000  -99999.0000  -99999.0000     5.269000  -99999.0000
     4.878000     5.670000   -16.450241
 5862.5000
  -99999.0000  -99999.0000  -99999.0000  -99999.0000     5.265000  -99999.0000
     4.886000     5.668000   -16.476147
 5863.0000
  -99999.0000  -99999.0000  -99999.0000  -99999.0000  -99999.0000  -99999.0000
  -99999.0000  -99999.0000   -16.502716
