~VERSION INFORMATION
 VERS.                 2.0:   CWLS Log Ascii Standard    
 WRAP.                 YES:   Multiple Lines per Depth   
~WELL INFORMATION
#MNEM.UNIT              DATA                DESCRIPTION OF MNEMONIC  
#---------              ----                -----------------------
 CTRY  .  USA                               :Country
 CNTY  .                                    :County
 API   .                                    :API Reference Number
 DATE  .                                    :Log Date
 LOC   .                                    :Location
 STRT  .FT         4594.0000                :Top Depth  
 STOP  .FT         5863.0000                :Bottom Depth  
 STEP  .FT             .5000                :Increment  
 NULL  .          -99999.000                :Null Value  
 COMP  .                                    :Company   
 FLD   .                                    :Field  
 STAT  .   TEXAS                            :State  
 SRVC  .   SCHLUMBERGER                     :Service Company  
 WELL  .   B YATES 15                       :Well  
 UWI   .   422373671100                     :Unique Well ID  
~PARAMETER INFORMATION
#MNEM.UNIT        Value       Description                
#---------    -------------   -------------------------- 
 RUN   .                 1:   Run Number                 
 DATUM .FT       1072.0000:   Datum                      
 AMST  .DEG.F      80.0000:   Annual Mean Surface Temp.  
 BHT   .DEG.F     138.0000:   Bottom Hole Temperature    
 TD    .FT       5865.0000:   Loggers Total Depth        
 BITSIZ.IN          7.8750:   Bit Size                   
 MW    .LB/USGAL    9.3000:   Mud Weight                 
 RM    .OHM-M       4.3000:   Mud Resistivity            
 RMMT  .DEG.F      75.0000:   Mud Resistivity Meas. Temp.
 RMF   .OHM-M       3.6000:   Mud Filtrate Resistivity   
 RMFMT .DEG.F      75.0000:   Mud Filtrate Res.Meas.Temp.
 RMC   .OHM-M       4.8000:   Mud Cake Resistivity       
 RMCMT .DEG.F      75.0000:   Mud Cake Res. Meas. Temp.  
 RW    .OHM-M        .0539:   Formation Water Resistivity
 RWMT  .DEG.F      75.0000:   Formation Water Res.M.Temp.
 SALFM .PPM      150000.00:   Formation Water Salinity   
~CURVE INFORMATION
#MNEM.UNIT       API Code     Curve Description          
#---------    -------------   -------------------------- 
 DEPTH .FT                    : Depth                                   
 CALI  .INS                   : Caliper                                 
 GR    .API                   : Gamma Ray                               
 NPHI  .PU                    : Compensated Neutron (Limestone)         
 PEF   .B/E                   : Photoelectric Effect                    
 RILD  .OHMM                  : Deep Induction Resistivity              
 RHOB  .G/CC                  : Formation Density Compensated           
 RILM  .OHMM                  : Medium Induction Resistivity            
 RSFL  .OHMM                  : Spherically Focused Resistivity         
 SP    .MV                    : Spontaneous Potential                   
~A Log Data Section - Number of Curves =    10
# ...
 5090.0000
    12.659000   103.589996    30.100000     1.847000     5.843000     2.011000
     5.172000     6.239000   -25.858919
 5090.5000
    12.510000   104.706001    30.100000     1.994000     5.843000     2.084000
     5.281000     6.576000   -25.864235
 5091.0000
    12.560000   105.953003    30.100000     2.098000     5.772000     2.156000
     5.365000     6.680000   -25.869547
 5091.5000
    12.706000   105.589996    30.100000     2.101000     5.702000     2.222000
     5.358000     6.680000   -25.874197
 5092.0000
    12.881000   104.265999    30.100000     2.057000     5.633000     2.270000
     5.185000     6.616000   -25.526144
 5092.5000
    13.051000   103.628998    30.100000     1.946000     5.667000     2.290000
     5.110000     6.324000   -24.332542
 5093.0000
    13.163000   103.039001    30.100000     1.747000     5.716000     2.240000
     5.122000     5.730000   -23.063217
 5093.5000
    13.085000   103.207001    30.100000     1.591000     5.772000     2.101000
     5.236000     5.514000   -22.070871
 5094.0000
    12.646000   106.655998    30.100000     1.652000     5.914000     2.026000
     5.470000     6.149000   -20.600954
 5094.5000
    11.898000   113.140999    30.100000     1.907000     6.082000     2.008000
     5.885000     6.706000   -19.098486
 5095.0000
    10.914000   122.567001    30.100000     2.248000     6.286000     2.086000
     6.286000     8.347000   -18.138025
 5095.5000
    10.024000   131.352997    30.100000     2.577000     6.576000     2.254000
     6.520000    10.103000   -17.436609
 5096.0000
     9.625000   133.884995    30.100000     2.809000     6.997000     2.391000
     6.963000    11.144000   -17.578753
 5096.5000
     9.496000   132.438004    30.100000     2.844000     7.464000     2.433000
     7.373000    11.555000   -17.830492
 5097.0000
     9.463000   129.973999    30.100000     2.905000     7.732000     2.444000
     7.837000    11.456000   -18.511980
 5097.5000
     9.475000   127.914001    30.100000     2.864000     7.914000     2.442000
     8.131000    11.472000   -19.738796
 5098.0000
     9.479000   124.720001    30.100000     2.638000     8.043000     2.427000
     7.870000    11.918000   -21.210043
 5098.5000
     9.507000   118.695999    30.100000     2.357000     7.767000     2.353000
     7.576000    12.694000   -22.777603
 5099.0000
     9.647000   107.999001    30.100000     1.833000     7.135000     2.142000
     6.639000    12.286000   -23.080486
 5099.5000
     9.801000    99.614998    30.100000     1.659000     6.387000     2.005000
     6.440000    10.209000   -22.740406
 5100.0000
    10.889000    97.563004    30.100000     1.714000     6.441000     2.006000
     6.363000     7.342000   -22.391026
 5100.5000
    11.056000    98.674004    30.100000     2.077000     5.841000     2.067000
     6.134000     6.127000   -20.947012
 5101.0000
    10.944000   101.370003    29.770000     2.440000     5.583000     2.202000
     5.994000     6.690000   -20.234304
 5101.5000
    10.244000   107.334000    28.080000     2.782000     5.377000     2.334000
     5.857000     7.867000   -19.874960
 5102.0000
     9.632000   106.155998    27.173000     2.980000     5.361000     2.437000
     5.654000     8.850000   -19.868982
 5102.5000
     9.650000   104.061996    27.665001     2.921000     5.399000     2.469000
     5.700000     8.962000   -19.999170
 5103.0000
     9.930000   102.119003    28.712000     2.737000     5.528000     2.457000
     5.877000     9.075000   -20.211056
 5103.5000
    10.424000   102.870003    30.118000     2.415000     5.634000     2.424000
     5.944000     9.236000   -20.205078
 5104.0000
    10.872000   103.916000    30.200001     2.281000     5.725000     2.359000
     5.991000     9.268000   -20.199100
 5104.5000
    11.103000   104.470001    30.181999     2.153000     5.848000     2.284000
     5.920000     8.600000   -20.193123
 5105.0000
    11.202000   104.026001    30.100000     2.155000     5.922000     2.215000
     5.850000     7.656000   -20.187145
 5105.5000
    11.136000   105.639999    30.100000     2.203000     5.850000     2.192000
     5.779000     6.770000   -20.181166
 5106.0000
    10.990000   108.070999    30.100000     2.305000     5.730000     2.230000
     5.642000     6.303000   -19.821823
 5106.5000
    10.787000   111.650002    30.100000     2.396000     5.586000     2.304000
     5.507000     6.224000   -19.815845
 5107.0000
    10.600000   115.167000    30.100000     2.454000     5.393000     2.378000
     5.327000     6.168000   -20.006475
 5107.5000
    10.517000   114.490997    30.100000     2.555000     5.270000     2.435000
     5.226000     6.152000   -20.320652
 5108.0000
    10.560000   111.842003    30.100000     2.646000     5.150000     2.438000
     5.121000     6.079000   -20.858671
 5108.5000
    10.610000   110.065002    30.100000     2.684000     5.060000     2.436000
     4.999000     6.006000   -20.852692
 5109.0000
    10.555000   110.086998    30.100000     2.658000     4.959000     2.438000
     4.879000     5.906000   -21.200081
 5109.5000
    10.483000   113.610001    30.100000     2.552000     4.881000     2.442000
     4.806000     5.793000   -21.194101
 5110.0000
    10.483000   115.652000    30.100000     2.434000     4.812000     2.453000
     4.764000     5.724000   -21.541489
 5110.5000
    10.488000   115.685997    30.082001     2.387000     4.703000     2.475000
     4.707000     5.587000   -21.535511
 5111.0000
    10.513000   112.782997    30.000000     2.387000     4.594000     2.497000
     4.651000     5.521000   -21.528868
 5111.5000
    10.525000   110.235001    30.000000     2.384000     4.540000     2.511000
     4.596000     5.455000   -21.524220
 5112.0000
    10.504000   109.014999    30.000000     2.357000     4.597000     2.501000
     4.638000     5.508000   -21.310341
 5112.5000
    10.456000   112.098000    30.000000     2.302000     4.712000     2.486000
     4.807000     5.709000   -21.158897
 5113.0000
    10.453000   117.517998    30.000000     2.283000     4.970000     2.464000
     5.140000     5.844000   -20.446190
 5113.5000
    10.390000   120.633003    30.000000     2.338000     5.451000     2.454000
     5.961000     5.981000   -19.565434
 5114.0000
    10.111000   120.614998    29.650999     2.579000     5.804000     2.465000
     6.836000     7.025000   -18.805565
 5114.5000
     9.730000   119.088997    27.127001     3.037000     5.957000     2.505000
     7.061000     8.894000   -18.120090
 5115.0000
     9.349000   114.373001    22.176001     3.395000     6.096000     2.546000
     7.148000    11.259000   -17.447901
 5115.5000
     9.019000   108.447998    19.528999     3.349000     6.256000     2.581000
     7.070000    12.552000   -17.098520
 5116.0000
     8.935000   102.858002    20.541000     3.060000     6.419000     2.569000
     7.078000    10.696000   -17.385464
 5116.5000
     8.936000    98.467003    23.106001     2.691000     6.500000     2.539000
     7.168000     8.157000   -17.463842
 5117.0000
     8.938000    96.696999    26.039000     2.544000     6.635000     2.509000
     7.228000     6.910000   -17.469156
 5117.5000
     8.945000    93.998001    26.843000     2.507000     7.130000     2.490000
     7.540000     7.130000   -17.473804
 5118.0000
     8.964000    93.667999    25.131001     2.628000     7.662000     2.482000
     8.441000     8.654000   -17.123760
 5118.5000
     8.956000    92.917000    22.031000     2.933000     7.937000     2.504000
     9.381000    11.766000   -17.129076
 5119.0000
     8.948000    88.408997    18.948999     3.196000     8.122000     2.567000
     9.847000    15.998000   -16.779032
 5119.5000
     8.946000    81.407997    16.298000     3.464000     8.505000     2.629000
     9.968000    21.535999   -16.783680
 5120.0000
     8.954000    78.771004    15.492000     3.556000     8.715000     2.654000
     9.728000    21.011000   -16.789658
 5120.5000
     8.988000    80.382004    16.267000     3.596000     8.822000     2.660000
     9.185000    16.476999   -16.783016
