~VERSION INFORMATION
 VERS.                 2.0:   CWLS Log Ascii Standard    
 WRAP.                 YES:   Multiple Lines per Depth   
~WELL INFORMATION
#MNEM.UNIT              DATA                DESCRIPTION OF MNEMONIC  
#---------              ----                -----------------------
 CTRY  .  USA                               :Country
 CNTY  .                                    :County
 API   .                                    :API Reference Number
 DATE  .                                    :Log Date
 LOC   .                                    :Location
 STRT  .FT         4594.0000                :Top Depth  
 STOP  .FT         5863.0000                :Bottom Depth  
 STEP  .FT             .5000                :Increment  
 NULL  .          -99999.000                :Null Value  
 COMP  .                                    :Company   
 FLD   .                                    :Field  
 STAT  .   TEXAS                            :State  
 SRVC  .   SCHLUMBERGER                     :Service Company  
 WELL  .   B YATES 15                       :Well  
 UWI   .   422373671100                     :Unique Well ID  
~PARAMETER INFORMATION
#MNEM.UNIT        Value       Description                
#---------    -------------   -------------------------- 
 RUN   .                 1:   Run Number                 
 DATUM .FT       1072.0000:   Datum                      
 AMST  .DEG.F      80.0000:   Annual Mean Surface Temp.  
 BHT   .DEG.F     138.0000:   Bottom Hole Temperature    
 TD    .FT       5865.0000:   Loggers Total Depth        
 BITSIZ.IN          7.8750:   Bit Size                   
 MW    .LB/USGAL    9.3000:   Mud Weight                 
 RM    .OHM-M       4.3000:   Mud Resistivity            
 RMMT  .DEG.F      75.0000:   Mud Resistivity Meas. Temp.
 RMF   .OHM-M       3.6000:   Mud Filtrate Resistivity   
 RMFMT .DEG.F      75.0000:   Mud Filtrate Res.Meas.Temp.
 RMC   .OHM-M       4.8000:   Mud Cake Resistivity       
 RMCMT .DEG.F      75.0000:   Mud Cake Res. Meas. Temp.  
 RW    .OHM-M        .0539:   Formation Water Resistivity
 RWMT  .DEG.F      75.0000:   Formation Water Res.M.Temp.
 SALFM .PPM      150000.00:   Formation Water Salinity   
~CURVE INFORMATION
#MNEM.UNIT       API Code     Curve Description          
#---------    -------------   -------------------------- 
 DEPTH .FT                    : Depth                                   
 CALI  .INS                   : Caliper                                 
 GR    .API                   : Gamma Ray                               
 NPHI  .PU                    : Compensated Neutron (Limestone)         
 PEF   .B/E                   : Photoelectric Effect                    
 RILD  .OHMM                  : Deep Induction Resistivity              
 RHOB  .G/CC                  : Formation Density Compensated           
 RILM  .OHMM                  : Medium Induction Resistivity            
 RSFL  .OHMM                  : Spherically Focused Resistivity         
 SP    .MV                    : Spontaneous Potential                   
~A Log Data Section - Number of Curves =    10
# ...
 4749.0000
    10.159000   116.364998  -99999.0000  -99999.0000     4.377000     2.133000
     4.540000     5.439000   -22.189768
 4749.5000
    10.504000   116.169998  -99999.0000  -99999.0000     4.376000     2.158000
     4.430000     5.194000   -21.493002
 4750.0000
    10.644000   115.207001    30.000000  -99999.0000     4.484000     2.274000
     4.429000     4.956000   -20.444197
 4750.5000
    10.711000   113.918999    30.000000     2.288000     4.483000     2.397000
     4.429000     4.882000   -19.466465
 4751.0000
    10.783000   113.137001    30.000000     2.332000     4.483000     2.463000
     4.375000     4.965000   -19.051992
 4751.5000
    10.818000   115.430000    30.000000     2.426000     4.482000     2.511000
     4.374000     5.063000   -19.062620
 4752.0000
    10.774000   118.976997    30.000000     2.587000     4.481000     2.521000
     4.373000     5.124000   -19.143654
 4752.5000
    10.666000   122.656998    30.000000     2.613000     4.481000     2.529000
     4.320000     5.124000   -20.141977
 4753.0000
    10.518000   126.245003    30.000000     2.528000     4.480000     2.503000
     4.319000     5.123000   -21.493666
 4753.5000
    10.382000   124.608002    30.000000     2.352000     4.480000     2.436000
     4.267000     5.185000   -22.493980
 4754.0000
    10.378000   119.291000    30.000000     2.170000     4.534000     2.368000
     4.214000     5.323000   -23.846333
 4754.5000
    10.747000   113.556999    30.000000     2.076000     4.533000     2.316000
     4.214000     5.443000   -24.420883
 4755.0000
    11.233000   108.012001    30.000000     2.058000     4.533000     2.251000
     4.413000     5.391000   -24.431511
 4755.5000
    11.487000   106.282997    30.000000     2.100000     4.532000     2.158000
     4.477000     5.273000   -24.441473
 4756.0000
    11.369000   108.625999    30.000000     2.121000     4.532000     2.106000
     4.543000     5.095000   -24.098072
 4756.5000
    11.189000   111.213997    30.000000     2.108000     4.531000     2.106000
     4.654000     4.995000   -23.261154
 4757.0000
    11.016000   112.238998    30.000000     2.107000     4.531000     2.150000
     4.756000     4.935000   -22.353167
 4757.5000
    10.883000   111.431000    30.000000     2.312000     4.530000     2.233000
     4.699000     4.933000   -22.363792
 4758.0000
    10.793000   111.792999    30.000000     2.517000     4.529000     2.334000
     4.641000     4.933000   -23.010080
 4758.5000
    10.762000   115.052002    30.000000     2.627000     4.607000     2.409000
     4.584000     4.955000   -23.655701
 4759.0000
    10.689000   120.984001    30.000000     2.623000     4.697000     2.412000
     4.473000     5.053000   -24.301323
 4759.5000
    10.716000   123.587997    30.000000     2.567000     4.754000     2.372000
     4.419000     5.113000   -24.523838
 4760.0000
    11.027000   124.156998    30.000000     2.546000     4.864000     2.333000
     4.787000     5.354000   -24.534464
 4760.5000
    11.223000   124.355003    30.000000     2.531000     4.870000     2.320000
     4.870000     5.531000   -24.191727
 4761.0000
    11.160000   122.986000    30.000000     2.440000     4.929000     2.308000
     4.929000     5.636000   -23.847662
 4761.5000
    11.077000   120.988998    30.000000     2.315000     4.928000     2.293000
     4.928000     5.635000   -23.151558
 4762.0000
    11.057000   119.371002    30.000000     2.193000     4.836000     2.264000
     4.911000     5.566000   -22.526527
 4762.5000
    11.070000   119.106003    30.000000     2.087000     4.636000     2.202000
     4.795000     5.352000   -21.577356
 4763.0000
    11.076000   118.098000    30.000000     1.999000     4.583000     2.116000
     4.692000     5.173000   -20.982216
 4763.5000
    11.026000   119.583000    30.000000     2.007000     4.579000     2.074000
     4.635000     4.950000   -20.351871
 4764.0000
    10.877000   118.620003    30.000000     2.109000     4.468000     2.124000
     4.578000     4.866000   -19.649790
 4764.5000
    10.752000   118.806000    30.000000     2.236000     4.413000     2.251000
     4.468000     4.807000   -19.301739
 4765.0000
    10.731000   119.959999    30.000000     2.344000     4.322000     2.377000
     4.414000     4.807000   -19.307053
 4765.5000
    10.700000   121.478996    30.000000     2.423000     4.131000     2.472000
     4.255000     4.865000   -19.312366
 4766.0000
    10.658000   122.633003    30.000000     2.466000     4.003000     2.491000
     4.152000     4.924000   -19.317015
 4766.5000
    10.573000   123.303001    30.000000     2.460000     3.915000     2.481000
     4.061000     4.820000   -19.322994
 4767.0000
    10.543000   122.968002    30.000000     2.412000     3.834000     2.450000
     3.954000     4.747000   -19.328308
 4767.5000
    10.620000   123.017998    30.000000     2.370000     3.765000     2.420000
     3.858000     4.624000   -19.686321
 4768.0000
    10.800000   124.053001    30.000000     2.404000     3.720000     2.423000
     3.769000     4.474000   -19.691637
 4768.5000
    10.807000   124.882004    30.000000     2.452000     3.646000     2.443000
     3.646000     4.357000   -19.696949
 4769.0000
    10.787000   125.455002    30.000000     2.482000     3.625000     2.445000
     3.581000     4.235000   -19.348234
 4769.5000
    10.798000   127.300003    30.000000     2.498000     3.578000     2.422000
     3.578000     4.141000   -19.353548
 4770.0000
    10.832000   130.522995    30.000000     2.472000     3.574000     2.383000
     3.618000     4.087000   -19.005497
 4770.5000
    10.837000   132.477005    30.000000     2.417000     3.632000     2.342000
     3.914000     4.083000   -18.657444
 4771.0000
    10.857000   130.022995    30.000000     2.317000     3.841000     2.298000
     4.259000     4.283000   -18.132711
 4771.5000
    10.862000   120.000999    30.000000     2.292000     4.111000     2.263000
     4.634000     5.132000   -17.254612
 4772.0000
    10.639000   108.749001    29.063999     2.486000     4.970000     2.264000
     5.264000     7.385000   -16.200495
 4772.5000
     9.896000    98.817001    23.577999     3.066000     6.073000     2.321000
     6.431000    10.627000   -15.232726
 4773.0000
     8.953000    88.866997    16.507000     3.646000     7.422000     2.453000
     7.857000    15.102000   -14.796998
 4773.5000
     8.501000    80.875000    11.255000     4.170000     8.986000     2.587000
     9.598000    21.000000   -14.095582
 4774.0000
     8.317000    75.142998    11.573000     4.396000    11.419000     2.684000
    11.726000    22.063999   -13.746866
 4774.5000
     8.299000    70.350998    11.771000     4.433000    15.293000     2.697000
    14.325000    22.336000   -13.752180
 4775.0000
     8.299000    64.781998    10.833000     4.541000    18.326000     2.698000
    17.500999    24.191000   -13.757493
 4775.5000
     8.295000    60.608002     8.833000     4.710000    21.469999     2.697000
    21.381001    28.724001   -13.762808
 4776.0000
     8.286000    58.605999     6.980000     4.756000    22.983000     2.699000
    24.323000    34.178001   -13.768122
 4776.5000
     8.302000    56.257999     5.761000     4.662000    24.340000     2.704000
    27.917999    36.946999   -13.773435
 4777.0000
     8.329000    52.877998     4.461000     4.619000    26.096001     2.707000
    32.044998    41.183998   -13.783399
 4777.5000
     8.346000    48.592999     3.180000     4.755000    27.636999     2.713000
    36.782001    63.448002   -13.800004
 4778.0000
     8.324000    46.243999     2.200000     5.035000    28.902000     2.716000
    37.861000    91.181000   -13.816609
 4778.5000
     8.327000    44.118999     2.347000     5.068000    28.900999     2.712000
    36.367001    95.660004   -13.833879
 4779.0000
     8.329000    44.089001     3.275000     5.015000    27.702000     2.704000
    32.280998    79.794998   -13.496455
 4779.5000
     8.332000    47.066002     4.684000     4.972000    24.347000     2.700000
    28.716999    60.005001   -13.513725
