~VERSION INFORMATION
 VERS.                 2.0:   CWLS Log Ascii Standard    
 WRAP.                 YES:   Multiple Lines per Depth   
~WELL INFORMATION
#MNEM.UNIT              DATA                DESCRIPTION OF MNEMONIC  
#---------              ----                -----------------------
 CTRY  .  USA                               :Country
 CNTY  .                                    :County
 API   .                                    :API Reference Number
 DATE  .                                    :Log Date
 LOC   .                                    :Location
 STRT  .FT         4594.0000                :Top Depth  
 STOP  .FT         5863.0000                :Bottom Depth  
 STEP  .FT             .5000                :Increment  
 NULL  .          -99999.000                :Null Value  
 COMP  .                                    :Company   
 FLD   .                                    :Field  
 STAT  .   TEXAS                            :State  
 SRVC  .   SCHLUMBERGER                     :Service Company  
 WELL  .   B YATES 15                       :Well  
 UWI   .   422373671100                     :Unique Well ID  
~PARAMETER INFORMATION
#MNEM.UNIT        Value       Description                
#---------    -------------   -------------------------- 
 RUN   .                 1:   Run Number                 
 DATUM .FT       1072.0000:   Datum                      
 AMST  .DEG.F      80.0000:   Annual Mean Surface Temp.  
 BHT   .DEG.F     138.0000:   Bottom Hole Temperature    
 TD    .FT       5865.0000:   Loggers Total Depth        
 BITSIZ.IN          7.8750:   Bit Size                   
 MW    .LB/USGAL    9.3000:   Mud Weight                 
 RM    .OHM-M       4.3000:   Mud Resistivity            
 RMMT  .DEG.F      75.0000:   Mud Resistivity Meas. Temp.
 RMF   .OHM-M       3.6000:   Mud Filtrate Resistivity   
 RMFMT .DEG.F      75.0000:   Mud Filtrate Res.Meas.Temp.
 RMC   .OHM-M       4.8000:   Mud Cake Resistivity       
 RMCMT .DEG.F      75.0000:   Mud Cake Res. Meas. Temp.  
 RW    .OHM-M        .0539:   Formation Water Resistivity
 RWMT  .DEG.F      75.0000:   Formation Water Res.M.Temp.
 SALFM .PPM      150000.00:   Formation Water Salinity   
~CURVE INFORMATION
#MNEM.UNIT       API Code     Curve Description          
#---------    -------------   -------------------------- 
 DEPTH .FT                    : Depth                                   
 CALI  .INS                   : Caliper                                 
 GR    .API                   : Gamma Ray                               
 NPHI  .PU                    : Compensated Neutron (Limestone)         
 PEF   .B/E                   : Photoelectric Effect                    
 RILD  .OHMM                  : Deep Induction Resistivity              
 RHOB  .G/CC                  : Formation Density Compensated           
 RILM  .OHMM                  : Medium Induction Resistivity            
 RSFL  .OHMM                  : Spherically Focused Resistivity         
 SP    .MV                    : Spontaneous Potential                   
~A Log Data Section - Number of Curves =    10
# ...
 5493.0000
    10.934000    97.709000    29.900000     2.834000     3.699000     2.523000
     3.866000     3.931000   -24.034307
 5493.5000
    10.853000    99.276001    25.429001     2.824000     3.883000     2.524000
     4.307000     4.288000   -24.039621
 5494.0000
    10.769000    97.728996    20.528000     2.653000     3.978000     2.510000
     4.718000     6.360000   -24.397635
 5494.5000
    10.695000    94.914001    19.475000     2.134000     4.026000     2.394000
     4.775000     9.432000   -24.755650
 5495.0000
    10.981000    93.094002    21.370001     1.846000     4.026000     2.210000
     4.340000     9.740000   -25.114328
 5495.5000
    11.761000    93.396004    26.465000     1.674000     4.025000     2.038000
     3.904000     6.837000   -25.119642
 5496.0000
    12.683000    95.174004    29.556999     1.601000     3.975000     1.997000
     3.786000     4.577000   -25.124956
 5496.5000
    12.823000    98.119003    30.100000     1.761000     3.891000     2.089000
     3.786000     3.627000   -24.776905
 5497.0000
    11.909000    98.494003    30.173000     2.100000     3.762000     2.236000
     3.902000     3.583000   -23.546104
 5497.5000
    10.599000    95.019997    28.666000     2.546000     3.649000     2.391000
     3.973000     4.025000   -20.724499
 5498.0000
    10.038000    91.785004    26.066000     2.743000     3.604000     2.490000
     3.973000     4.669000   -19.139669
 5498.5000
     9.848000    92.067001    24.287001     2.884000     3.603000     2.545000
     3.924000     5.354000   -18.791616
 5499.0000
     9.733000    94.008003    24.115999     2.952000     3.647000     2.563000
     3.829000     5.452000   -18.443567
 5499.5000
     9.688000    95.386002    24.844999     2.994000     3.828000     2.564000
     3.782000     5.352000   -18.448217
 5500.0000
     9.650000    94.916000    25.528000     3.038000     3.922000     2.569000
     3.875000     5.066000   -18.454193
 5500.5000
     9.602000    93.443001    25.771000     3.094000     4.055000     2.580000
     4.122000     4.883000   -18.459507
 5501.0000
     9.534000    93.273003    25.587999     3.148000     4.167000     2.588000
     4.322000     4.972000   -18.464157
 5501.5000
     9.456000    94.621002    25.077999     3.144000     4.230000     2.590000
     4.442000     5.332000   -17.971970
 5502.0000
     9.358000    95.134003    24.549999     3.100000     4.321000     2.587000
     4.592000     5.649000   -16.986931
 5502.5000
     9.272000    93.430000    23.983000     3.059000     4.393000     2.585000
     4.648000     5.930000   -16.000565
 5503.0000
     9.212000    91.591003    23.385000     2.992000     4.480000     2.583000
     4.704000     6.113000   -15.659156
 5503.5000
     9.166000    91.251999    22.787001     2.899000     4.548000     2.583000
     4.775000     6.224000   -15.664470
 5504.0000
     9.115000    92.433998    22.188999     2.797000     4.645000     2.586000
     4.877000     6.223000   -16.375849
 5504.5000
     9.059000    94.055000    22.000000     2.773000     4.702000     2.595000
     4.936000     6.147000   -17.087894
 5505.0000
     9.024000    94.940002    22.136000     2.914000     4.701000     2.601000
     4.936000     6.146000   -17.799273
 5505.5000
     9.016000    95.807999    22.402000     3.080000     4.700000     2.599000
     4.935000     6.164000   -18.448217
 5506.0000
     9.016000    96.834999    22.768999     3.167000     4.699000     2.594000
     4.934000     6.295000   -19.222696
 5506.5000
     9.016000    96.991997    23.167000     3.114000     4.656000     2.590000
     4.933000     6.529000   -18.874645
 5507.0000
     9.016000    95.852997    23.299999     3.009000     4.641000     2.587000
     4.932000     6.528000   -18.879959
 5507.5000
     9.016000    93.565002    23.299999     2.920000     4.584000     2.585000
     4.931000     6.507000   -19.245943
 5508.0000
     8.998000    91.626999    23.365999     2.865000     4.500000     2.582000
     4.871000     6.368000   -19.950018
 5508.5000
     8.989000    92.046997    23.923000     2.779000     4.431000     2.575000
     4.753000     6.157000   -20.661398
 5509.0000
     8.989000    94.358002    25.176001     2.805000     4.337000     2.565000
     4.609000     5.881000   -20.666710
 5509.5000
     8.971000    97.649002    26.476999     2.881000     4.245000     2.559000
     4.470000     5.334000   -20.672026
 5510.0000
     8.961000    99.612999    26.964001     2.930000     4.104000     2.560000
     4.362000     5.049000   -20.677338
 5510.5000
     8.979000    98.336998    26.936001     2.944000     4.005000     2.567000
     4.215000     4.879000   -21.036018
 5511.0000
     8.989000    97.325996    27.027000     2.961000     3.880000     2.576000
     4.123000     4.808000   -21.605253
 5511.5000
     8.989000    97.851997    27.354000     3.041000     3.821000     2.583000
     3.880000     4.867000   -22.106077
 5512.0000
     8.989000    99.360001    27.437000     3.127000     3.768000     2.587000
     3.814000     4.926000   -22.111389
 5512.5000
     8.989000   101.025002    27.212000     3.153000     3.677000     2.577000
     3.768000     4.926000   -22.116039
 5513.0000
     8.989000   102.816002    26.913000     3.065000     3.633000     2.565000
     3.722000     4.926000   -22.121353
 5513.5000
     8.989000   104.000999    27.233000     2.916000     3.589000     2.561000
     3.722000     4.831000   -22.127331
 5514.0000
     8.989000   103.886002    28.363001     2.766000     3.589000     2.565000
     3.768000     4.692000   -22.131981
 5514.5000
     8.989000   103.375999    29.084000     2.705000     3.597000     2.578000
     3.768000     4.635000   -22.137295
 5515.0000
     8.990000   103.208000    28.591000     2.705000     3.677000     2.592000
     3.768000     4.692000   -21.789244
 5515.5000
     8.997000   104.341003    27.534000     2.720000     3.713000     2.597000
     3.814000     4.995000   -21.441191
 5516.0000
     9.008000   106.934998    26.677999     2.769000     3.768000     2.593000
     3.861000     5.404000   -20.877934
 5516.5000
     9.014000   109.036003    26.400000     2.802000     3.833000     2.591000
     3.956000     5.565000   -20.391060
 5517.0000
     9.016000   109.944000    26.518999     2.837000     3.966000     2.599000
     4.113000     5.484000   -20.043673
 5517.5000
     9.016000   110.476997    26.541000     2.858000     4.154000     2.607000
     4.308000     5.236000   -19.694958
 5518.0000
     9.016000   111.737000    26.323000     2.821000     4.351000     2.608000
     4.721000     5.060000   -19.408014
 5518.5000
     9.016000   113.638000    25.674000     2.784000     4.590000     2.602000
     5.300000     5.048000   -19.352884
 5519.0000
     9.016000   112.720001    24.136000     2.841000     5.308000     2.599000
     5.950000     5.198000   -19.710897
 5519.5000
     9.016000   107.047997    21.160999     2.968000     6.001000     2.607000
     6.681000     6.370000   -20.145964
 5520.0000
     9.023000    96.288002    17.417999     3.108000     6.363000     2.614000
     7.501000    10.164000   -20.780956
 5520.5000
     9.037000    85.523003    13.915000     3.117000     6.584000     2.608000
     7.827000    16.218000   -20.786270
 5521.0000
     9.078000    80.991997    12.897000     2.945000     6.862000     2.550000
     7.583000    24.209999   -21.144285
 5521.5000
     9.154000    82.676003    17.150999     2.526000     7.135000     2.437000
     7.066000    19.695999   -21.149599
 5522.0000
     9.241000    88.356003    22.778999     2.262000     7.364000     2.308000
     6.648000    11.471000   -21.082514
 5522.5000
     9.314000    93.763000    25.858999     2.301000     7.364000     2.219000
     6.363000     6.680000   -20.806862
 5523.0000
     9.311000    93.560997    24.596001     2.524000     7.205000     2.232000
     6.504000     7.165000   -20.812176
 5523.5000
     9.245000    89.600998    20.532000     2.743000     6.594000     2.361000
     6.946000     8.565000   -20.817490
