~VERSION INFORMATION
 VERS.                 2.0:   CWLS Log Ascii Standard    
 WRAP.                 YES:   Multiple Lines per Depth   
~WELL INFORMATION
#MNEM.UNIT              DATA                DESCRIPTION OF MNEMONIC  
#---------              ----                -----------------------
 CTRY  .  USA                               :Country
 CNTY  .                                    :County
 API   .                                    :API Reference Number
 DATE  .                                    :Log Date
 LOC   .                                    :Location
 STRT  .FT         4594.0000                :Top Depth  
 STOP  .FT         5863.0000                :Bottom Depth  
 STEP  .FT             .5000                :Increment  
 NULL  .          -99999.000                :Null Value  
 COMP  .                                    :Company   
 FLD   .                                    :Field  
 STAT  .   TEXAS                            :State  
 SRVC  .   SCHLUMBERGER                     :Service Company  
 WELL  .   B YATES 15                       :Well  
 UWI   .   422373671100                     :Unique Well ID  
~PARAMETER INFORMATION
#MNEM.UNIT        Value       Description                
#---------    -------------   -------------------------- 
 RUN   .                 1:   Run Number                 
 DATUM .FT       1072.0000:   Datum                      
 AMST  .DEG.F      80.0000:   Annual Mean Surface Temp.  
 BHT   .DEG.F     138.0000:   Bottom Hole Temperature    
 TD    .FT       5865.0000:   Loggers Total Depth        
 BITSIZ.IN          7.8750:   Bit Size                   
 MW    .LB/USGAL    9.3000:   Mud Weight                 
 RM    .OHM-M       4.3000:   Mud Resistivity            
 RMMT  .DEG.F      75.0000:   Mud Resistivity Meas. Temp.
 RMF   .OHM-M       3.6000:   Mud Filtrate Resistivity   
 RMFMT .DEG.F      75.0000:   Mud Filtrate Res.Meas.Temp.
 RMC   .OHM-M       4.8000:   Mud Cake Resistivity       
 RMCMT .DEG.F      75.0000:   Mud Cake Res. Meas. Temp.  
 RW    .OHM-M        .0539:   Formation Water Resistivity
 RWMT  .DEG.F      75.0000:   Formation Water Res.M.Temp.
 SALFM .PPM      150000.00:   Formation Water Salinity   
~CURVE INFORMATION
#MNEM.UNIT       API Code     Curve Description          
#---------    -------------   -------------------------- 
 DEPTH .FT                    : Depth                                   
 CALI  .INS                   : Caliper                                 
 GR    .API                   : Gamma Ray                               
 NPHI  .PU                    : Compensated Neutron (Limestone)         
 PEF   .B/E                   : Photoelectric Effect                    
 RILD  .OHMM                  : Deep Induction Resistivity              
 RHOB  .G/CC                  : Formation Density Compensated           
 RILM  .OHMM                  : Medium Induction Resistivity            
 RSFL  .OHMM                  : Spherically Focused Resistivity         
 SP    .MV                    : Spontaneous Potential                   
~A Log Data Section - Number of Curves =    10
# ...
 5679.0000
     9.063000   101.073997    27.181000     2.822000     3.986000     2.585000
     3.986000     5.295000   -17.002209
 5679.5000
     9.002000   101.763000    26.433001     2.830000     4.084000     2.581000
     4.084000     5.401000   -16.772388
 5680.0000
     8.915000   103.416000    26.100000     2.850000     4.101000     2.581000
     4.035000     5.510000   -16.312748
 5680.5000
     8.831000   104.593002    26.267000     2.875000     4.002000     2.585000
     4.002000     5.541000   -16.322712
 5681.0000
     8.744000   103.378998    26.562000     2.869000     4.033000     2.582000
     4.033000     5.475000   -16.155327
 5681.5000
     8.668000   101.200996    26.805000     2.843000     4.032000     2.576000
     4.032000     5.471000   -15.989273
 5682.0000
     8.613000    99.891998    26.900000     2.830000     4.031000     2.574000
     4.031000     5.496000   -15.999237
 5682.5000
     8.584000    99.185997    26.850000     2.843000     4.130000     2.575000
     4.130000     5.537000   -16.362564
 5683.0000
     8.562000    98.388000    26.558001     2.870000     4.030000     2.574000
     4.030000     5.536000   -16.373192
 5683.5000
     8.519000    98.335999    26.066000     2.860000     4.060000     2.567000
     4.060000     5.467000   -16.383156
 5684.0000
     8.472000    99.160004    25.528000     2.788000     4.144000     2.558000
     4.144000     5.254000   -16.393118
 5684.5000
     8.421000    99.598999    24.673000     2.694000     4.282000     2.554000
     4.282000     5.142000   -16.402418
 5685.0000
     8.380000    98.929001    23.445999     2.701000     4.450000     2.564000
     4.450000     5.641000   -16.589729
 5685.5000
     8.353000    97.180000    22.207001     2.865000     4.517000     2.580000
     4.517000     6.310000   -17.484432
 5686.0000
     8.337000    96.272003    21.222000     3.011000     4.486000     2.588000
     4.486000     7.058000   -17.494396
 5686.5000
     8.336000    96.863998    20.761999     3.042000     4.483000     2.585000
     4.483000     6.934000   -17.504358
 5687.0000
     8.346000    98.855003    21.068001     3.022000     4.602000     2.575000
     4.602000     6.696000   -17.868351
 5687.5000
     8.364000   100.836998    22.301001     2.970000     4.594000     2.560000
     4.594000     6.371000   -18.231016
 5688.0000
     8.364000   101.609001    23.976000     2.905000     4.490000     2.554000
     4.490000     6.099000   -18.240980
 5688.5000
     8.373000   101.609001    25.650999     2.806000     4.544000     2.553000
     4.544000     5.871000   -17.897577
 5689.0000
     8.391000   101.276001    26.924000     2.683000     4.543000     2.559000
     4.543000     5.728000   -17.376829
 5689.5000
     8.391000   100.192001    26.993000     2.584000     4.598000     2.571000
     4.598000     5.943000   -16.414375
 5690.0000
     8.391000    98.783997    26.163000     2.569000     4.768000     2.582000
     4.653000     6.068000   -15.452583
 5690.5000
     8.391000    97.253998    25.007000     2.609000     4.860000     2.593000
     4.910000     6.276000   -14.139421
 5691.0000
     8.391000    97.791000    24.024000     2.711000     5.028000     2.598000
     5.028000     6.734000   -13.351655
 5691.5000
     8.387000   100.098000    23.405001     2.768000     5.254000     2.591000
     5.254000     7.051000   -13.361618
 5692.0000
     8.372000   102.125000    23.055000     2.832000     5.588000     2.582000
     5.683000     7.556000   -13.018881
 5692.5000
     8.370000   103.748001    22.837000     2.865000     6.048000     2.579000
     6.283000     8.019000   -13.028844
 5693.0000
     8.391000   103.168999    22.347000     2.842000     6.311000     2.582000
     6.947000     8.849000   -13.404793
 5693.5000
     8.391000    99.774002    20.993000     2.795000     6.619000     2.590000
     7.237000    10.551000   -13.518374
 5694.0000
     8.391000    93.767998    19.318001     2.753000     6.865000     2.602000
     7.477000    11.602000   -13.841850
 5694.5000
     8.391000    88.403000    17.688000     2.724000     7.111000     2.611000
     7.567000    11.769000   -13.884359
 5695.0000
     8.391000    87.695999    16.527000     2.735000     7.419000     2.616000
     7.565000    11.008000   -14.279571
 5695.5000
     8.391000    90.355003    16.834000     2.818000     7.610000     2.615000
     7.564000     9.270000   -14.674782
 5696.0000
     8.391000    95.616997    17.930000     2.932000     7.844000     2.605000
     7.716000     8.515000   -14.716627
 5696.5000
     8.391000   100.617996    19.038000     2.974000     7.939000     2.596000
     7.939000     8.653000   -14.758473
 5697.0000
     8.391000   100.823997    19.329000     2.992000     8.034000     2.592000
     8.233000    10.006000   -14.800320
 5697.5000
     8.391000    94.869003    18.410000     3.041000     8.033000     2.599000
     8.538000    11.952000   -14.842165
 5698.0000
     8.391000    86.161003    17.024000     3.083000     8.129000     2.607000
     8.690000    13.082000   -14.826888
 5698.5000
     8.391000    80.792000    15.600000     3.054000     8.356000     2.612000
     8.881000    12.891000   -14.795670
 5699.0000
     8.391000    78.279999    15.606000     2.986000     8.532000     2.619000
     8.959000    12.608000   -14.411086
 5699.5000
     8.391000    77.712997    15.902000     2.934000     8.621000     2.623000
     8.957000    12.300000   -14.026503
 5700.0000
     8.391000    77.177002    16.198000     2.926000     8.528000     2.621000
     8.955000    11.913000   -13.641919
 5700.5000
     8.391000    77.831001    16.591000     2.971000     8.369000     2.617000
     8.737000    11.088000   -13.609372
 5701.0000
     8.391000    79.817001    16.889000     3.038000     8.180000     2.608000
     8.383000    10.362000   -12.869431
 5701.5000
     8.417000    83.347000    17.375000     2.992000     8.066000     2.604000
     8.317000    10.382000   -12.836884
 5702.0000
     8.443000    85.209000    17.774000     2.962000     7.908000     2.602000
     8.215000    10.743000   -12.804338
 5702.5000
     8.448000    85.825996    17.799999     2.960000     7.753000     2.606000
     8.113000    10.872000   -12.782418
 5703.0000
     8.470000    84.587997    17.256001     3.034000     7.602000     2.612000
     7.916000    10.870000   -12.787732
 5703.5000
     8.497000    82.082001    16.665001     3.197000     7.453000     2.611000
     7.758000    10.661000   -13.147076
 5704.0000
     8.528000    81.078003    16.688000     3.269000     7.307000     2.604000
     7.537000    10.421000   -13.151725
 5704.5000
     8.574000    81.867996    17.045000     3.267000     7.161000     2.599000
     7.412000    10.438000   -13.157039
 5705.0000
     8.632000    85.376999    17.948999     3.114000     6.985000     2.599000
     7.246000    10.096000   -12.808988
 5705.5000
     8.689000    88.877998    18.851000     3.004000     6.827000     2.606000
     7.082000     9.851000   -12.460936
 5706.0000
     8.736000    91.415001    19.246000     2.950000     6.667000     2.612000
     6.915000     9.612000   -12.465586
 5706.5000
     8.758000    93.158997    19.622000     2.940000     6.585000     2.617000
     6.767000     9.299000   -12.117534
 5707.0000
     8.779000    94.337997    19.858000     2.952000     6.534000     2.620000
     6.696000     9.151000   -11.769483
 5707.5000
     8.802000    94.522003    20.443001     2.895000     6.503000     2.620000
     6.664000     8.994000   -11.420767
 5708.0000
     8.829000    93.059998    20.676001     2.837000     6.423000     2.622000
     6.663000     8.900000   -11.932881
 5708.5000
     8.879000    91.025002    20.775000     2.861000     6.345000     2.628000
     6.676000     8.818000   -12.594444
 5709.0000
     8.908000    89.811996    20.872999     2.992000     6.267000     2.639000
     6.742000     9.030000   -13.611365
 5709.5000
     8.946000    91.556999    21.547001     3.106000     6.057000     2.652000
     6.741000    10.057000   -14.273593
