~VERSION INFORMATION
 VERS.                 2.0:   CWLS Log Ascii Standard    
 WRAP.                 YES:   Multiple Lines per Depth   
~WELL INFORMATION
#MNEM.UNIT              DATA                DESCRIPTION OF MNEMONIC  
#---------              ----                -----------------------
 CTRY  .  USA                               :Country
 CNTY  .                                    :County
 API   .                                    :API Reference Number
 DATE  .                                    :Log Date
 LOC   .                                    :Location
 STRT  .FT         4594.0000                :Top Depth  
 STOP  .FT         5863.0000                :Bottom Depth  
 STEP  .FT             .5000                :Increment  
 NULL  .          -99999.000                :Null Value  
 COMP  .                                    :Company   
 FLD   .                                    :Field  
 STAT  .   TEXAS                            :State  
 SRVC  .   SCHLUMBERGER                     :Service Company  
 WELL  .   B YATES 15                       :Well  
 UWI   .   422373671100                     :Unique Well ID  
~PARAMETER INFORMATION
#MNEM.UNIT        Value       Description                
#---------    -------------   -------------------------- 
 RUN   .                 1:   Run Number                 
 DATUM .FT       1072.0000:   Datum                      
 AMST  .DEG.F      80.0000:   Annual Mean Surface Temp.  
 BHT   .DEG.F     138.0000:   Bottom Hole Temperature    
 TD    .FT       5865.0000:   Loggers Total Depth        
 BITSIZ.IN          7.8750:   Bit Size                   
 MW    .LB/USGAL    9.3000:   Mud Weight                 
 RM    .OHM-M       4.3000:   Mud Resistivity            
 RMMT  .DEG.F      75.0000:   Mud Resistivity Meas. Temp.
 RMF   .OHM-M       3.6000:   Mud Filtrate Resistivity   
 RMFMT .DEG.F      75.0000:   Mud Filtrate Res.Meas.Temp.
 RMC   .OHM-M       4.8000:   Mud Cake Resistivity       
 RMCMT .DEG.F      75.0000:   Mud Cake Res. Meas. Temp.  
 RW    .OHM-M        .0539:   Formation Water Resistivity
 RWMT  .DEG.F      75.0000:   Formation Water Res.M.Temp.
 SALFM .PPM      150000.00:   Formation Water Salinity   
~CURVE INFORMATION
#MNEM.UNIT       API Code     Curve Description          
#---------    -------------   -------------------------- 
 DEPTH .FT                    : Depth                                   
 CALI  .INS                   : Caliper                                 
 GR    .API                   : Gamma Ray                               
 NPHI  .PU                    : Compensated Neutron (Limestone)         
 PEF   .B/E                   : Photoelectric Effect                    
 RILD  .OHMM                  : Deep Induction Resistivity              
 RHOB  .G/CC                  : Formation Density Compensated           
 RILM  .OHMM                  : Medium Induction Resistivity            
 RSFL  .OHMM                  : Spherically Focused Resistivity         
 SP    .MV                    : Spontaneous Potential                   
~A Log Data Section - Number of Curves =    10
# ...
 5245.0000
    10.872000    96.241997    25.749001     1.998000     7.829000     2.066000
     8.930000    13.188000   -26.017004
 5245.5000
     9.851000    72.512001    18.079000     2.147000     9.911000     2.219000
    12.312000    25.688000   -26.970823
 5246.0000
     8.976000    49.441002     8.972000     2.168000    12.781000     2.426000
    16.975000    50.035999   -27.830990
 5246.5000
     8.573000    38.546001     3.717000     2.103000    16.483000     2.541000
    21.729000    97.460999   -28.189005
 5247.0000
     8.532000    36.037998     2.245000     2.071000    21.235001     2.576000
    24.849001   113.193001   -27.603163
 5247.5000
     8.547000    37.096001     2.700000     2.136000    26.363001     2.554000
    28.417999   109.485001   -26.650005
 5248.0000
     8.604000    41.230999     4.113000     2.269000    30.645000     2.516000
    30.645000    63.487000   -25.730726
 5248.5000
     8.635000    48.362000     5.868000     2.451000    31.235001     2.489000
    30.854000    35.726002   -25.098387
 5249.0000
     8.635000    53.221001     6.945000     2.637000    29.487000     2.483000
    28.895000    34.060001   -24.144567
 5249.5000
     8.657000    54.659000     7.433000     2.747000    24.011999     2.488000
    24.205999    37.275002   -23.191412
 5250.0000
     8.832000    56.620998     8.601000     2.716000    17.358000     2.487000
    19.688999    36.654999   -22.236927
 5250.5000
     9.068000    59.816002    11.738000     2.585000    14.142000     2.477000
    16.016001    23.372999   -21.164875
 5251.0000
     9.281000    76.877998    15.927000     2.452000    11.521000     2.464000
    13.027000    14.903000   -20.816826
 5251.5000
     9.493000    95.353996    20.155001     2.312000     9.386000     2.431000
    10.597000     9.773000   -20.821474
 5252.0000
     9.700000   104.530998    24.445999     2.143000     7.647000     2.295000
     8.619000     8.464000   -21.180153
 5252.5000
    10.054000   108.961998    28.398001     1.847000     6.636000     2.104000
     7.011000     7.330000   -21.539495
 5253.0000
    10.674000   111.599998    29.863001     1.612000     5.797000     2.010000
     5.829000     6.517000   -21.896847
 5253.5000
    11.267000   113.416000    29.900000     1.601000     5.379000     1.997000
     5.546000     5.824000   -22.209030
 5254.0000
    10.994000   115.921997    29.964001     1.757000     5.105000     1.997000
     5.361000     5.810000   -22.260839
 5254.5000
    10.124000   117.771004    28.381001     2.012000     4.994000     2.060000
     5.187000     6.323000   -22.266153
 5255.0000
     9.556000   118.530998    25.799000     2.294000     4.880000     2.245000
     5.062000     6.783000   -22.270803
 5255.5000
     9.445000   118.716003    25.559999     2.413000     4.821000     2.375000
     4.839000     6.648000   -22.629480
 5256.0000
     9.530000   118.716003    27.167000     2.410000     4.762000     2.392000
     4.762000     6.086000   -22.634796
 5256.5000
     9.739000   118.716003    28.474001     2.399000     4.704000     2.381000
     4.704000     5.479000   -22.639444
 5257.0000
     9.974000   119.080002    29.139999     2.501000     4.617000     2.399000
     4.594000     5.247000   -22.985504
 5257.5000
    10.156000   118.515999    28.888000     2.604000     4.535000     2.439000
     4.590000     5.186000   -22.972883
 5258.0000
    10.250000   116.261002    28.631001     2.522000     4.479000     2.430000
     4.479000     5.225000   -22.959599
 5258.5000
    10.305000   113.607002    29.230000     2.170000     4.348000     2.305000
     4.401000     5.313000   -22.946978
 5259.0000
    10.385000   110.696999    29.853001     1.814000     4.214000     2.112000
     4.318000     5.248000   -23.287060
 5259.5000
    10.677000   109.677002    30.000000     1.693000     4.112000     2.014000
     4.264000     5.311000   -23.274439
 5260.0000
    11.062000   110.480003    30.000000     1.763000     4.022000     1.997000
     4.163000     5.428000   -23.261154
 5260.5000
    11.415000   112.272003    29.927000     1.928000     3.936000     2.042000
     4.062000     5.510000   -23.247871
 5261.0000
    11.599000   113.869003    29.900000     2.036000     3.916000     2.131000
     4.013000     5.294000   -23.235250
 5261.5000
    11.619000   109.921997    29.900000     2.053000     3.920000     2.181000
     4.013000     4.932000   -23.221966
 5262.0000
    11.554000   108.981003    29.900000     2.031000     4.004000     2.150000
     4.062000     4.656000   -23.221966
 5262.5000
    11.587000   110.561996    29.900000     1.984000     4.242000     2.087000
     4.140000     4.447000   -23.233923
 5263.0000
    11.628000   102.245003    28.761999     1.967000     4.579000     2.016000
     4.477000     4.423000   -23.244549
 5263.5000
    11.383000    98.746002    23.277000     2.228000     5.234000     2.000000
     5.662000     4.709000   -22.903803
 5264.0000
    10.757000    92.236000    16.531000     2.930000     5.983000     2.108000
     7.550000     8.768000   -22.915096
 5264.5000
    10.041000    84.026001     9.863000     3.741000     6.838000     2.296000
     9.768000    19.290001   -22.662029
 5265.0000
     9.525000    72.404999     5.106000     4.205000     7.816000     2.447000
    10.932000    42.438999   -22.585642
 5265.5000
     9.304000    65.911003     9.579000     3.926000     9.207000     2.452000
    11.828000    56.158001   -22.244898
 5266.0000
     9.191000    68.161003    20.415001     3.345000    11.900000     2.347000
    12.491000    54.598999   -22.256853
 5266.5000
     9.152000    73.435997    24.490000     2.731000    15.380000     2.223000
    14.929000    22.662001   -22.267483
 5267.0000
     9.145000    73.538002    24.819000     2.368000    19.878000     2.179000
    18.885000    22.111000   -22.278772
 5267.5000
     9.098000    63.855000    18.587999     2.438000    21.840000     2.268000
    23.889000    22.858999   -22.290064
 5268.0000
     9.026000    48.180000     9.864000     2.534000    22.108000     2.427000
    26.899000    33.034000   -22.300692
 5268.5000
     8.983000    39.673000     4.980000     2.577000    21.510000     2.537000
    27.903999    51.492001   -21.959284
 5269.0000
     8.977000    37.417999     3.547000     2.706000    20.290001     2.632000
    27.902000    80.264999   -21.617874
 5269.5000
     9.021000    40.398998     3.652000     3.012000    19.160999     2.692000
    26.118999    96.225998   -20.923765
 5270.0000
     9.027000    46.630001     5.807000     3.185000    15.285000     2.705000
    20.912001    91.211998   -19.877617
 5270.5000
     9.050000    52.438999     9.245000     2.973000    13.277000     2.703000
    16.549999    63.978001   -19.888908
 5271.0000
     9.141000    62.705002    12.940000     2.697000    10.803000     2.593000
    13.845000    40.067001   -19.899536
 5271.5000
     9.221000    76.436996    16.906000     2.414000     8.599000     2.465000
    10.735000    17.826000   -19.910164
 5272.0000
     9.273000    84.109001    20.833000     2.123000     6.942000     2.337000
     8.324000     9.485000   -20.273493
 5272.5000
     9.564000    89.712997    24.830000     1.913000     5.893000     2.208000
     6.454000     6.190000   -20.284784
 5273.0000
    10.436000    96.325996    28.153000     1.795000     5.003000     2.085000
     5.199000     5.089000   -20.647448
 5273.5000
    11.066000   104.217003    29.462999     1.857000     4.344000     2.055000
     4.685000     4.931000   -21.011442
 5274.0000
    11.109000   104.375000    29.773001     2.070000     3.915000     2.127000
     4.369000     4.931000   -21.375435
 5274.5000
    10.503000   104.679001    29.886999     2.330000     3.692000     2.310000
     4.120000     4.930000   -21.738762
 5275.0000
    10.142000   104.613998    29.900000     2.567000     3.569000     2.464000
     3.840000     4.930000   -21.750717
 5275.5000
    10.073000   103.995003    29.900000     2.666000     3.493000     2.510000
     3.668000     4.930000   -21.762009
