~VERSION INFORMATION
 VERS.                 2.0:   CWLS Log Ascii Standard    
 WRAP.                 YES:   Multiple Lines per Depth   
~WELL INFORMATION
#MNEM.UNIT              DATA                DESCRIPTION OF MNEMONIC  
#---------              ----                -----------------------
 CTRY  .  USA                               :Country
 CNTY  .                                    :County
 API   .                                    :API Reference Number
 DATE  .                                    :Log Date
 LOC   .                                    :Location
 STRT  .FT         4594.0000                :Top Depth  
 STOP  .FT         5863.0000                :Bottom Depth  
 STEP  .FT             .5000                :Increment  
 NULL  .          -99999.000                :Null Value  
 COMP  .                                    :Company   
 FLD   .                                    :Field  
 STAT  .   TEXAS                            :State  
 SRVC  .   SCHLUMBERGER                     :Service Company  
 WELL  .   B YATES 15                       :Well  
 UWI   .   422373671100                     :Unique Well ID  
~PARAMETER INFORMATION
#MNEM.UNIT        Value       Description                
#---------    -------------   -------------------------- 
 RUN   .                 1:   Run Number                 
 DATUM .FT       1072.0000:   Datum                      
 AMST  .DEG.F      80.0000:   Annual Mean Surface Temp.  
 BHT   .DEG.F     138.0000:   Bottom Hole Temperature    
 TD    .FT       5865.0000:   Loggers Total Depth        
 BITSIZ.IN          7.8750:   Bit Size                   
 MW    .LB/USGAL    9.3000:   Mud Weight                 
 RM    .OHM-M       4.3000:   Mud Resistivity            
 RMMT  .DEG.F      75.0000:   Mud Resistivity Meas. Temp.
 RMF   .OHM-M       3.6000:   Mud Filtrate Resistivity   
 RMFMT .DEG.F      75.0000:   Mud Filtrate Res.Meas.Temp.
 RMC   .OHM-M       4.8000:   Mud Cake Resistivity       
 RMCMT .DEG.F      75.0000:   Mud Cake Res. Meas. Temp.  
 RW    .OHM-M        .0539:   Formation Water Resistivity
 RWMT  .DEG.F      75.0000:   Formation Water Res.M.Temp.
 SALFM .PPM      150000.00:   Formation Water Salinity   
~CURVE INFORMATION
#MNEM.UNIT       API Code     Curve Description          
#---------    -------------   -------------------------- 
 DEPTH .FT                    : Depth                                   
 CALI  .INS                   : Caliper                                 
 GR    .API                   : Gamma Ray                               
 NPHI  .PU                    : Compensated Neutron (Limestone)         
 PEF   .B/E                   : Photoelectric Effect                    
 RILD  .OHMM                  : Deep Induction Resistivity              
 RHOB  .G/CC                  : Formation Density Compensated           
 RILM  .OHMM                  : Medium Induction Resistivity            
 RSFL  .OHMM                  : Spherically Focused Resistivity         
 SP    .MV                    : Spontaneous Potential                   
~A Log Data Section - Number of Curves =    10
# ...
 4935.0000
     9.052000   130.815994    23.299999     2.540000     6.580000     2.617000
     6.580000     7.808000   -16.471497
 4935.5000
     9.128000   131.755005    23.299999     2.541000     6.524000     2.539000
     6.445000     7.527000   -17.074610
 4936.0000
     9.272000   128.686996    23.299999     2.541000     6.421000     2.447000
     6.421000     7.309000   -17.548197
 4936.5000
     9.506000   124.195000    23.299999     2.541000     6.421000     2.406000
     6.580000     7.168000   -17.553513
 4937.0000
     9.757000   119.079002    23.299999     2.541000     6.421000     2.402000
     6.645000     7.417000   -17.558825
 4937.5000
     9.919000   117.014999    23.299999     2.542000     6.421000     2.424000
     6.540000     7.760000   -17.210110
 4938.0000
     9.714000   115.610001    23.299999     2.542000     6.421000     2.457000
     6.580000     7.904000   -16.862059
 4938.5000
     9.380000   115.033997    23.299999     2.542000     6.421000     2.494000
     6.809000     7.991000   -16.867373
 4939.0000
     9.203000   115.149002    23.299999     2.543000     6.421000     2.523000
     6.826000     8.001000   -16.519985
 4939.5000
     9.172000   115.709999    23.299999     2.543000     6.500000     2.541000
     6.826000     8.001000   -16.171268
 4940.0000
     9.165000   115.820999    23.299999     2.543000     6.500000     2.531000
     6.826000     8.001000   -16.176584
 4940.5000
     9.160000   114.462997    23.299999     2.543000     6.580000     2.518000
     6.826000     7.904000   -16.181896
 4941.0000
     9.215000   114.109001    23.299999     2.544000     6.743000     2.528000
     6.826000     7.808000   -16.186546
 4941.5000
     9.262000   116.880997    23.299999     2.544000     6.838000     2.555000
     6.910000     7.808000   -16.545225
 4942.0000
     9.264000   119.994003    23.299999     2.544000     6.996000     2.572000
     6.995000     7.813000   -16.550539
 4942.5000
     9.265000   121.259003    23.299999     2.544000     7.077000     2.580000
     7.152000     8.001000   -16.908554
 4943.0000
     9.267000   120.518997    23.299999     2.545000     7.168000     2.584000
     7.219000     8.630000   -17.080587
 4943.5000
     9.268000   116.227997    23.299999     2.545000     7.467000     2.593000
     7.371000     9.264000   -17.273211
 4944.0000
     9.265000   111.835999    23.299999     2.545000     7.630000     2.605000
     7.660000     9.509000   -17.277861
 4944.5000
     9.265000   108.550003    23.299999     2.546000     7.713000     2.607000
     7.808000     9.610000   -17.283173
 4945.0000
     9.264000   106.857002    23.299999     2.546000     7.713000     2.599000
     7.808000     9.728000   -17.288488
 4945.5000
     9.269000   107.858002    23.299999     2.546000     7.674000     2.594000
     7.713000     9.675000   -17.293802
 4946.0000
     9.291000   110.069000    23.299999     2.546000     7.527000     2.601000
     7.713000     9.445000   -17.298450
 4946.5000
     9.301000   112.785004    23.299999     2.547000     7.435000     2.607000
     7.532000     8.744000   -17.303764
 4947.0000
     9.368000   115.982002    23.299999     2.547000     7.194000     2.602000
     7.242000     8.015000   -17.309078
 4947.5000
     9.473000   118.181999    23.299999     2.547000     6.955000     2.593000
     6.910000     7.346000   -17.314392
 4948.0000
     9.513000   120.207001    23.299999     2.548000     6.725000     2.585000
     6.743000     7.100000   -16.966341
 4948.5000
     9.530000   122.407997    23.299999     2.548000     6.580000     2.579000
     6.661000     7.527000   -16.714602
 4949.0000
     9.498000   124.375000    23.299999     2.548000     6.442000     2.574000
     6.580000     7.786000   -16.452898
 4949.5000
     9.454000   121.364998    23.299999     2.548000     6.421000     2.573000
     6.580000     7.808000   -16.274887
 4950.0000
     9.464000   116.508003    23.299999     2.549000     6.423000     2.572000
     6.604000     7.686000   -15.926836
 4950.5000
     9.518000   112.956001    23.299999     2.549000     6.425000     2.579000
     6.665000     7.439000   -16.285515
 4951.0000
     9.577000   113.014999    23.299999     2.549000     6.427000     2.594000
     6.745000     7.529000   -16.636887
 4951.5000
     9.643000   117.029999    23.299999     2.549000     6.429000     2.594000
     6.446000     7.702000   -16.974976
 4952.0000
     9.643000   120.214996    23.299999     2.550000     6.353000     2.575000
     6.479000     7.722000   -17.317049
 4952.5000
     9.643000   121.296997    23.299999     2.550000     6.168000     2.563000
     6.355000     7.724000   -17.648495
 4953.0000
     9.643000   120.199997    23.299999     2.550000     6.054000     2.563000
     6.280000     7.393000   -17.919497
 4953.5000
     9.643000   117.136002    23.299999     2.551000     5.983000     2.572000
     6.272000     7.084000   -17.987911
 4954.0000
     9.643000   116.717003    23.299999     2.551000     5.912000     2.581000
     6.132000     6.927000   -17.975290
 4954.5000
     9.648000   117.889999    23.299999     2.551000     5.858000     2.590000
     6.060000     6.861000   -17.608643
 4955.0000
     9.679000   118.603996    23.299999     2.551000     5.843000     2.597000
     5.987000     6.792000   -17.596022
 4955.5000
     9.732000   115.514999    23.299999     2.552000     5.772000     2.598000
     5.914000     6.719000   -17.584066
 4956.0000
     9.802000   113.228996    23.299999     2.552000     5.772000     2.597000
     5.965000     6.871000   -17.571445
 4956.5000
     9.881000   113.532997    23.299999     2.552000     5.772000     2.602000
     5.823000     7.100000   -17.560154
 4957.0000
     9.964000   115.492996    23.299999     2.553000     5.772000     2.593000
     5.702000     6.930000   -17.548197
 4957.5000
     9.968000   119.787003    23.299999     2.553000     5.702000     2.563000
     5.633000     6.549000   -17.535578
 4958.0000
     9.968000   124.138000    23.299999     2.553000     5.702000     2.542000
     5.633000     6.210000   -17.523623
 4958.5000
     9.972000   127.681000    23.299999     2.553000     5.702000     2.537000
     5.843000     6.134000   -17.511665
 4959.0000
     9.994000   129.001999    23.299999     2.554000     5.702000     2.544000
     5.843000     6.388000   -17.145016
 4959.5000
     9.992000   127.943001    23.299999     2.554000     5.633000     2.569000
     5.772000     6.694000   -17.133724
 4960.0000
     9.982000   127.049004    23.299999     2.554000     5.565000     2.596000
     5.633000     6.722000   -17.475134
 4960.5000
     9.959000   126.279999    23.299999     2.554000     5.506000     2.605000
     5.514000     6.620000   -17.463842
 4961.0000
     9.936000   123.314003    23.299999     2.555000     5.431000     2.590000
     5.431000     6.324000   -17.807907
 4961.5000
     9.936000   119.551003    23.299999     2.555000     5.365000     2.574000
     5.357000     6.191000   -18.304745
 4962.0000
     9.941000   114.905998    23.299999     2.555000     5.300000     2.576000
     5.300000     6.134000   -18.877966
 4962.5000
     9.974000   113.323997    23.299999     2.556000     5.300000     2.573000
     5.300000     6.134000   -18.882616
 4963.0000
    10.024000   114.615997    23.299999     2.556000     5.236000     2.568000
     5.300000     6.060000   -19.241295
 4963.5000
    10.078000   117.830002    23.299999     2.556000     5.236000     2.568000
     5.236000     5.914000   -19.246609
 4964.0000
    10.138000   121.448997    23.299999     2.556000     5.236000     2.573000
     5.236000     5.914000   -19.251259
 4964.5000
    10.226000   124.207001    23.299999     2.557000     5.172000     2.578000
     5.431000     6.134000   -19.256571
 4965.0000
    10.286000   125.311996    23.299999     2.557000     5.172000     2.574000
     5.398000     6.480000   -19.261885
 4965.5000
    10.263000   122.375000    23.299999     2.557000     5.110000     2.563000
     5.300000     6.783000   -19.267200
