~VERSION INFORMATION
 VERS.                 2.0:   CWLS Log Ascii Standard    
 WRAP.                 YES:   Multiple Lines per Depth   
~WELL INFORMATION
#MNEM.UNIT              DATA                DESCRIPTION OF MNEMONIC  
#---------              ----                -----------------------
 CTRY  .  USA                               :Country
 CNTY  .                                    :County
 API   .                                    :API Reference Number
 DATE  .                                    :Log Date
 LOC   .                                    :Location
 STRT  .FT         4594.0000                :Top Depth  
 STOP  .FT         5863.0000                :Bottom Depth  
 STEP  .FT             .5000                :Increment  
 NULL  .          -99999.000                :Null Value  
 COMP  .                                    :Company   
 FLD   .                                    :Field  
 STAT  .   TEXAS                            :State  
 SRVC  .   SCHLUMBERGER                     :Service Company  
 WELL  .   B YATES 15                       :Well  
 UWI   .   422373671100                     :Unique Well ID  
~PARAMETER INFORMATION
#MNEM.UNIT        Value       Description                
#---------    -------------   -------------------------- 
 RUN   .                 1:   Run Number                 
 DATUM .FT       1072.0000:   Datum                      
 AMST  .DEG.F      80.0000:   Annual Mean Surface Temp.  
 BHT   .DEG.F     138.0000:   Bottom Hole Temperature    
 TD    .FT       5865.0000:   Loggers Total Depth        
 BITSIZ.IN          7.8750:   Bit Size                   
 MW    .LB/USGAL    9.3000:   Mud Weight                 
 RM    .OHM-M       4.3000:   Mud Resistivity            
 RMMT  .DEG.F      75.0000:   Mud Resistivity Meas. Temp.
 RMF   .OHM-M       3.6000:   Mud Filtrate Resistivity   
 RMFMT .DEG.F      75.0000:   Mud Filtrate Res.Meas.Temp.
 RMC   .OHM-M       4.8000:   Mud Cake Resistivity       
 RMCMT .DEG.F      75.0000:   Mud Cake Res. Meas. Temp.  
 RW    .OHM-M        .0539:   Formation Water Resistivity
 RWMT  .DEG.F      75.0000:   Formation Water Res.M.Temp.
 SALFM .PPM      150000.00:   Formation Water Salinity   
~CURVE INFORMATION
#MNEM.UNIT       API Code     Curve Description          
#---------    -------------   -------------------------- 
 DEPTH .FT                    : Depth                                   
 CALI  .INS                   : Caliper                                 
 GR    .API                   : Gamma Ray                               
 NPHI  .PU                    : Compensated Neutron (Limestone)         
 PEF   .B/E                   : Photoelectric Effect                    
 RILD  .OHMM                  : Deep Induction Resistivity              
 RHOB  .G/CC                  : Formation Density Compensated           
 RILM  .OHMM                  : Medium Induction Resistivity            
 RSFL  .OHMM                  : Spherically Focused Resistivity         
 SP    .MV                    : Spontaneous Potential                   
~A Log Data Section - Number of Curves =    10
# ...
 5183.0000
    13.120000   101.848999    30.000000     2.424000     5.614000     2.273000
     5.614000     6.995000   -22.031683
 5183.5000
    12.930000   101.164001    30.000000     2.393000     5.556000     2.227000
     5.556000     7.081000   -22.030355
 5184.0000
    12.716000   101.500999    30.000000     2.371000     5.559000     2.220000
     5.559000     7.115000   -22.029026
 5184.5000
    12.626000   101.065002    30.000000     2.303000     5.465000     2.244000
     5.465000     7.081000   -22.028362
 5185.0000
    12.790000   101.065002    30.000000     2.173000     5.412000     2.285000
     5.412000     6.910000   -22.027699
 5185.5000
    12.992000   101.065002    30.000000     2.095000     5.346000     2.325000
     5.346000     6.743000   -22.026369
 5186.0000
    13.153000   101.063004    30.000000     2.090000     5.452000     2.354000
     5.452000     6.629000   -22.025705
 5186.5000
    13.134000   101.199997    30.000000     2.166000     5.546000     2.375000
     5.546000     6.661000   -22.380398
 5187.0000
    13.140000   102.310997    30.000000     2.250000     5.346000     2.389000
     5.346000     6.843000   -22.733099
 5187.5000
    13.076000   104.914001    30.000000     2.334000     5.412000     2.393000
     5.412000     6.910000   -23.086466
 5188.0000
    12.820000   107.760002    30.000000     2.224000     5.412000     2.363000
     5.412000     6.995000   -23.433187
 5188.5000
    12.468000   109.657997    30.000000     2.099000     5.346000     2.317000
     5.346000     6.995000   -23.792532
 5189.0000
    12.425000   111.306999    30.000000     2.119000     5.281000     2.305000
     5.281000     6.843000   -24.145895
 5189.5000
    12.544000   113.237999    30.000000     2.340000     5.211000     2.352000
     5.211000     6.645000   -24.144567
 5190.0000
    12.581000   114.079002    29.982000     2.524000     5.092000     2.415000
     5.092000     6.580000   -23.789209
 5190.5000
    12.497000   112.762001    29.900000     2.512000     5.029000     2.402000
     5.029000     6.444000   -23.168163
 5191.0000
    12.578000   109.521004    29.900000     2.371000     4.908000     2.344000
     4.908000     6.010000   -22.902475
 5191.5000
    13.030000   106.608002    29.900000     2.185000     4.916000     2.276000
     4.916000     5.605000   -22.725130
 5192.0000
    13.466000   107.375999    29.900000     2.094000     5.026000     2.227000
     5.026000     5.546000   -22.369772
 5192.5000
    13.246000   109.667000    29.900000     2.126000     4.995000     2.183000
     4.995000     5.722000   -21.661049
 5193.0000
    12.346000   109.963997    29.900000     2.174000     4.924000     2.177000
     4.924000     6.136000   -21.483702
 5193.5000
    11.875000   108.417000    29.900000     2.209000     4.968000     2.203000
     4.968000     6.421000   -22.013084
 5194.0000
    11.919000   107.271004    29.900000     2.287000     4.968000     2.255000
     4.968000     6.489000   -22.365786
 5194.5000
    12.175000   107.578003    29.900000     2.381000     4.968000     2.319000
     4.968000     6.500000   -22.718487
 5195.0000
    12.561000   109.058998    29.900000     2.422000     4.842000     2.383000
     4.842000     6.343000   -23.071852
 5195.5000
    13.043000   110.610001    29.900000     2.351000     4.848000     2.424000
     4.848000     6.202000   -23.069859
 5196.0000
    13.476000   111.460999    29.900000     2.239000     4.759000     2.406000
     4.759000     6.000000   -23.072517
 5196.5000
    13.621000   111.387001    29.900000     2.211000     4.674000     2.340000
     4.674000     5.735000   -23.077829
 5197.0000
    13.374000   109.515999    29.900000     2.232000     4.509000     2.235000
     4.509000     5.545000   -23.082479
 5197.5000
    12.741000   105.014999    29.900000     2.208000     4.431000     2.130000
     4.431000     5.545000   -23.087793
 5198.0000
    12.073000    98.514999    29.900000     2.045000     4.396000     2.035000
     4.396000     5.613000   -23.093107
 5198.5000
    11.696000    91.255997    29.900000     1.842000     4.290000     1.997000
     4.290000     5.613000   -22.832733
 5199.0000
    11.606000    87.792999    29.900000     1.681000     4.290000     1.997000
     4.290000     5.612000   -22.573023
 5199.5000
    11.721000    89.098000    29.900000     1.661000     4.238000     1.997000
     4.238000     5.544000   -21.828432
 5200.0000
    12.085000    93.286003    29.900000     1.802000     4.164000     1.997000
     4.164000     5.476000   -21.347538
 5200.5000
    12.266000    98.802002    29.900000     1.981000     4.135000     2.005000
     4.135000     5.410000   -20.733797
 5201.0000
    12.671000   103.028000    29.900000     2.046000     4.135000     2.058000
     4.135000     5.297000   -20.651434
 5201.5000
    13.066000   105.625999    29.900000     2.032000     4.252000     2.145000
     4.252000     5.185000   -20.303383
 5202.0000
    13.336000   104.809998    29.900000     1.954000     4.318000     2.213000
     4.325000     5.075000   -20.308033
 5202.5000
    13.203000   103.241997    29.900000     1.728000     4.959000     2.185000
     5.131000     5.026000   -20.313345
 5203.0000
    12.853000   100.536003    29.900000     1.960000     5.301000     2.094000
     6.088000     5.289000   -20.848707
 5203.5000
    12.298000    94.462997    29.660999     2.861000     5.408000     2.052000
     6.865000     8.404000   -21.471081
 5204.0000
    11.027000    87.164001    27.884001     3.422000     5.474000     2.147000
     6.880000    15.748000   -22.448812
 5204.5000
     9.998000    81.815002    24.681999     3.796000     5.474000     2.230000
     6.229000    20.224001   -23.779247
 5205.0000
     9.830000    87.961998    25.041000     3.307000     5.474000     2.216000
     5.844000    19.493000   -24.756315
 5205.5000
     9.960000    97.276001    27.569000     2.727000     5.407000     2.120000
     5.482000    11.357000   -25.290346
 5206.0000
    10.021000   103.704002    30.100000     2.387000     5.341000     2.064000
     5.135000     7.501000   -25.295662
 5206.5000
    10.046000   108.827003    30.100000     2.035000     5.341000     2.036000
     4.906000     6.257000   -24.682587
 5207.0000
    10.260000   111.793999    30.100000     1.678000     5.473000     2.000000
     4.785000     5.644000   -23.716146
 5207.5000
    10.833000   114.624001    29.952999     1.538000     5.711000     2.000000
     4.898000     5.340000   -22.763655
 5208.0000
    11.342000   115.918999    28.988001     1.695000     6.083000     2.000000
     6.120000     5.810000   -21.647764
 5208.5000
    11.239000   114.319000    26.205000     2.045000     6.556000     2.029000
     8.500000    12.479000   -20.532537
 5209.0000
    10.649000   108.398003    18.641001     2.482000     7.066000     2.195000
     8.791000    26.503000   -19.416649
 5209.5000
     9.525000   102.349998    12.820000     2.901000     7.615000     2.382000
     8.917000    27.451000   -18.531908
 5210.0000
     9.072000    99.999001    14.553000     3.115000     8.207000     2.507000
     8.808000    26.420000   -17.917503
 5210.5000
     9.014000   102.361000    18.653000     3.232000     8.491000     2.552000
     8.699000    17.004999   -17.922817
 5211.0000
     8.997000   108.925003    22.753000     3.247000     8.317000     2.567000
     8.348000    10.444000   -17.928131
 5211.5000
     8.963000   115.696999    26.412001     3.151000     7.540000     2.565000
     7.795000     9.271000   -17.969313
 5212.0000
     8.966000   117.928001    27.929001     2.963000     6.892000     2.561000
     6.892000     8.587000   -18.644825
 5212.5000
     8.988000   117.213997    28.537001     2.816000     6.128000     2.566000
     6.093000     8.110000   -19.356869
 5213.0000
     8.983000   114.448997    28.681999     2.791000     5.717000     2.566000
     6.003000     7.986000   -19.716211
 5213.5000
     8.970000   112.913002    28.507999     2.826000     5.465000     2.549000
     5.739000     8.183000   -20.387737
